[
	{
		"city": "臺北市",
		"obversation": [
			{
				"name": "鞍部",
				"altitude": "837.6",
				"longitude": "121.529731",
				"latitude": "25.182586",
				"city": "臺北市",
				"town": "北投區",
				"address": "北投區陽明山竹子湖路111號"
			},
			{
				"name": "臺北",
				"altitude": "5.3",
				"longitude": "121.514853",
				"latitude": "25.037658",
				"city": "臺北市",
				"town": "中正區",
				"address": "中正區公園路64號"
			},
			{
				"name": "竹子湖",
				"altitude": "607.1",
				"longitude": "121.544547",
				"latitude": "25.162078",
				"city": "臺北市",
				"town": "北投區",
				"address": "北投區陽明山竹子湖路2號"
			},
			{
				"name": "社子",
				"altitude": "11.0",
				"longitude": "121.469681",
				"latitude": "25.109508",
				"city": "臺北市",
				"town": "士林區",
				"address": "士林區延平北路9段212號(台北海洋技術學院內)"
			},
			{
				"name": "天母",
				"altitude": "35.0",
				"longitude": "121.537169",
				"latitude": "25.117494",
				"city": "臺北市",
				"town": "士林區",
				"address": "士林區天母東路116號(三玉國小內)"
			},
			{
				"name": "士林",
				"altitude": "26.0",
				"longitude": "121.503019",
				"latitude": "25.090253",
				"city": "臺北市",
				"town": "士林區",
				"address": "士林區延平北路6段308號(社子國小內)"
			},
			{
				"name": "內湖",
				"altitude": "35.0",
				"longitude": "121.575450",
				"latitude": "25.079422",
				"city": "臺北市",
				"town": "內湖區",
				"address": "內湖區內湖路一段520號(內湖高工內)"
			},
			{
				"name": "大屯山",
				"altitude": "1079.0",
				"longitude": "121.522408",
				"latitude": "25.175675",
				"city": "臺北市",
				"town": "北投區",
				"address": "北投區湖田段461-6地號(民航局大屯山助航臺)"
			},
			{
				"name": "信義",
				"altitude": "71.0",
				"longitude": "121.564597",
				"latitude": "25.037822",
				"city": "臺北市",
				"town": "信義區",
				"address": "信義區市府路1號(台北市政府頂樓)"
			},
			{
				"name": "文山",
				"altitude": "40.0",
				"longitude": "121.575728",
				"latitude": "25.002350",
				"city": "臺北市",
				"town": "文山區",
				"address": "文山區木柵路4段159巷14-1號(博嘉國小校園內)"
			},
			{
				"name": "平等",
				"altitude": "426.0",
				"longitude": "121.577086",
				"latitude": "25.129142",
				"city": "臺北市",
				"town": "士林區",
				"address": "士林區平菁街101號(平等國小)"
			},
			{
				"name": "松山",
				"altitude": "34.0",
				"longitude": "121.550420",
				"latitude": "25.048710",
				"city": "臺北市",
				"town": "松山區",
				"address": "松山區敦化北路1號(臺北市松山運動中心)"
			},
			{
				"name": "石牌",
				"altitude": "35.0",
				"longitude": "121.513167",
				"latitude": "25.115601",
				"city": "臺北市",
				"town": "北投區",
				"address": "北投區石牌路一段139號(石牌國中自強樓頂樓)"
			},
			{
				"name": "關渡",
				"altitude": "111.0",
				"longitude": "121.469331",
				"latitude": "25.133486",
				"city": "臺北市",
				"town": "北投區",
				"address": "北投區學園路2號(臺北城市科技大學校園內5樓頂)"
			},
			{
				"name": "國三N016K",
				"altitude": "64.0",
				"longitude": "121.619664",
				"latitude": "25.034164",
				"city": "臺北市",
				"town": "國道3號北向16.51K ",
				"address": "國道3號北向16.51K"
			}
		]
	},
	{
		"city": "基隆市",
		"obversation": [
			{
				"name": "基隆",
				"altitude": "26.7",
				"longitude": "121.740475",
				"latitude": "25.133314",
				"city": "基隆市",
				"town": "仁愛區",
				"address": "仁愛區港西街6號6樓(海港大樓6樓)"
			},
			{
				"name": "彭佳嶼",
				"altitude": "101.7",
				"longitude": "122.079744",
				"latitude": "25.627975",
				"city": "基隆市",
				"town": "中正區",
				"address": "中正區彭佳嶼"
			},
			{
				"name": "七堵",
				"altitude": "38.0",
				"longitude": "121.717130",
				"latitude": "25.094819",
				"city": "基隆市",
				"town": "七堵區",
				"address": "七堵區東新街22號(基隆商工樓頂)"
			},
			{
				"name": "基隆嶼",
				"altitude": "86.0",
				"longitude": "121.783910",
				"latitude": "25.191410",
				"city": "基隆市",
				"town": "中正區",
				"address": "中正區基隆嶼"
			}
		]
	},
	{
		"city": "新北市",
		"obversation": [
			{
				"name": "板橋",
				"altitude": "9.7",
				"longitude": "121.442017",
				"latitude": "24.997647",
				"city": "新北市",
				"town": "板橋區",
				"address": "板橋區大觀路二段265巷62號"
			},
			{
				"name": "淡水",
				"altitude": "19.0",
				"longitude": "121.448906",
				"latitude": "25.164889",
				"city": "新北市",
				"town": "淡水區",
				"address": "淡水區中正東路42巷6號"
			},
			{
				"name": "山佳",
				"altitude": "48.0",
				"longitude": "121.402008",
				"latitude": "24.974944",
				"city": "新北市",
				"town": "樹林區",
				"address": "樹林區中山路3段5號(山佳國民小學校園內)"
			},
			{
				"name": "坪林",
				"altitude": "300.0",
				"longitude": "121.709378",
				"latitude": "24.938203",
				"city": "新北市",
				"town": "坪林區",
				"address": "坪林區"
			},
			{
				"name": "四堵",
				"altitude": "401.0",
				"longitude": "121.745894",
				"latitude": "24.892761",
				"city": "新北市",
				"town": "坪林區",
				"address": "坪林區碧湖(北宜路旁之碧湖橋道路上行約10分鐘)"
			},
			{
				"name": "泰平",
				"altitude": "422.0",
				"longitude": "121.823711",
				"latitude": "24.971197",
				"city": "新北市",
				"town": "雙溪區",
				"address": "雙溪區泰平里8鄰大平路43號(泰平國小分校附近)"
			},
			{
				"name": "福山",
				"altitude": "405.0",
				"longitude": "121.502811",
				"latitude": "24.776203",
				"city": "新北市",
				"town": "烏來區",
				"address": "烏來區福山里李茂岸八號(福山國小旁)"
			},
			{
				"name": "桶後",
				"altitude": "360.0",
				"longitude": "121.597992",
				"latitude": "24.848222",
				"city": "新北市",
				"town": "烏來區",
				"address": "烏來區后桶街49號孝義里5-6k處路旁"
			},
			{
				"name": "石碇",
				"altitude": "241.0",
				"longitude": "121.662931",
				"latitude": "24.993858",
				"city": "新北市",
				"town": "石碇區",
				"address": "石碇區湳窟34號附近"
			},
			{
				"name": "火燒寮",
				"altitude": "287.0",
				"longitude": "121.742892",
				"latitude": "25.002719",
				"city": "新北市",
				"town": "平溪區",
				"address": "平溪區東勢里"
			},
			{
				"name": "瑞芳",
				"altitude": "97.0",
				"longitude": "121.801147",
				"latitude": "25.113169",
				"city": "新北市",
				"town": "瑞芳區",
				"address": "瑞芳區22403龍山里逢甲路360號(義方國民小學校園內)"
			},
			{
				"name": "大坪",
				"altitude": "362.0",
				"longitude": "121.632969",
				"latitude": "25.165914",
				"city": "新北市",
				"town": "萬里區",
				"address": "萬里區溪底里香員林6-3號"
			},
			{
				"name": "五指山",
				"altitude": "685.0",
				"longitude": "121.608692",
				"latitude": "25.132153",
				"city": "新北市",
				"town": "汐止區",
				"address": "汐止區國軍示範公墓旁之復興廣播電台門口外"
			},
			{
				"name": "福隆",
				"altitude": "6.0",
				"longitude": "121.942083",
				"latitude": "25.017842",
				"city": "新北市",
				"town": "貢寮區",
				"address": "貢寮區東北角海岸國家風景管理處之福隆遊客中心後方"
			},
			{
				"name": "雙溪",
				"altitude": "40.0",
				"longitude": "121.864242",
				"latitude": "25.036003",
				"city": "新北市",
				"town": "雙溪區",
				"address": "雙溪區雙溪里社區活動中心旁花圃內"
			},
			{
				"name": "富貴角",
				"altitude": "196.0",
				"longitude": "121.565258",
				"latitude": "25.263783",
				"city": "新北市",
				"town": "石門區",
				"address": "石門區山溪里10鄰九芎林13號旁(石門國小山溪分班附近)"
			},
			{
				"name": "三和",
				"altitude": "216.0",
				"longitude": "121.595236",
				"latitude": "25.233153",
				"city": "新北市",
				"town": "金山區",
				"address": "金山區三和國小兩湖分校"
			},
			{
				"name": "金山",
				"altitude": "49.0",
				"longitude": "121.643967",
				"latitude": "25.223628",
				"city": "新北市",
				"town": "金山區",
				"address": "金山區中興段404地號(磺港社區活動中心內)"
			},
			{
				"name": "鼻頭角",
				"altitude": "60.0",
				"longitude": "121.923372",
				"latitude": "25.129036",
				"city": "新北市",
				"town": "瑞芳區",
				"address": "瑞芳區鼻頭角燈塔旁"
			},
			{
				"name": "三貂角",
				"altitude": "96.0",
				"longitude": "122.002058",
				"latitude": "25.007606",
				"city": "新北市",
				"town": "貢寮區",
				"address": "貢寮區三貂角燈塔旁"
			},
			{
				"name": "三峽",
				"altitude": "55.0",
				"longitude": "121.369728",
				"latitude": "24.939025",
				"city": "新北市",
				"town": "三峽區",
				"address": "三峽區復興路238號(三峽國中校園內)"
			},
			{
				"name": "新莊",
				"altitude": "25.0",
				"longitude": "121.446756",
				"latitude": "25.051478",
				"city": "新北市",
				"town": "新莊區",
				"address": "新莊區中和街193號(榮富國小校園內)"
			},
			{
				"name": "三芝",
				"altitude": "86.0",
				"longitude": "121.501917",
				"latitude": "25.258131",
				"city": "新北市",
				"town": "三芝區",
				"address": "三芝區育英路22號(三芝國小內)"
			},
			{
				"name": "八里",
				"altitude": "27.0",
				"longitude": "121.403947",
				"latitude": "25.150211",
				"city": "新北市",
				"town": "八里區",
				"address": "八里區中山路二段338號(八里國小內)"
			},
			{
				"name": "蘆洲",
				"altitude": "20.0",
				"longitude": "121.472331",
				"latitude": "25.086594",
				"city": "新北市",
				"town": "蘆洲區",
				"address": "蘆洲區三民路96號(三民高中內)"
			},
			{
				"name": "土城",
				"altitude": "32.0",
				"longitude": "121.445169",
				"latitude": "24.973208",
				"city": "新北市",
				"town": "土城區",
				"address": "土城區金城路一段90號(新北市政府消防局土城分隊大樓樓頂)"
			},
			{
				"name": "鶯歌",
				"altitude": "84.0",
				"longitude": "121.346294",
				"latitude": "24.951533",
				"city": "新北市",
				"town": "鶯歌區",
				"address": "鶯歌區尖山埔路106號(鶯歌國小內)"
			},
			{
				"name": "中和",
				"altitude": "25.0",
				"longitude": "121.490444",
				"latitude": "24.992647",
				"city": "新北市",
				"town": "中和區",
				"address": "中和區錦和路350號(錦和運動公園)"
			},
			{
				"name": "汐止",
				"altitude": "38.0",
				"longitude": "121.658778",
				"latitude": "25.066881",
				"city": "新北市",
				"town": "汐止區",
				"address": "汐止區大同路二段394號(汐止國中)"
			},
			{
				"name": "永和",
				"altitude": "30.0",
				"longitude": "121.508111",
				"latitude": "25.011250",
				"city": "新北市",
				"town": "永和區",
				"address": "永和區永平路205號(永平高中校園內)"
			},
			{
				"name": "五分山",
				"altitude": "755.0",
				"longitude": "121.780794",
				"latitude": "25.071250",
				"city": "新北市",
				"town": "瑞芳區",
				"address": "瑞芳區靜安路四段1巷1號"
			},
			{
				"name": "林口",
				"altitude": "275.0",
				"longitude": "121.380840",
				"latitude": "25.072181",
				"city": "新北市",
				"town": "林口區",
				"address": "林口區仁愛路二段173號(林口高中內)"
			},
			{
				"name": "深坑",
				"altitude": "68.0",
				"longitude": "121.628328",
				"latitude": "25.002703",
				"city": "新北市",
				"town": "深坑區",
				"address": "深坑區文山路1段35號(深坑消防分隊樓頂)"
			},
			{
				"name": "福山植物園",
				"altitude": "660.0",
				"longitude": "121.581350",
				"latitude": "24.760717",
				"city": "新北市",
				"town": "烏來區",
				"address": "烏來區福山植物園內(生活植物區之民俗植物區觀測坪)"
			},
			{
				"name": "五股",
				"altitude": "188.0",
				"longitude": "121.427280",
				"latitude": "25.074450",
				"city": "新北市",
				"town": "五股區",
				"address": "五股區外寮路12號"
			},
			{
				"name": "屈尺",
				"altitude": "76.0",
				"longitude": "121.544750",
				"latitude": "24.921840",
				"city": "新北市",
				"town": "新店區",
				"address": "新店區屈尺路83號(衛福部北區老人之家)"
			},
			{
				"name": "白沙灣",
				"altitude": "25.0",
				"longitude": "121.519058",
				"latitude": "25.283128",
				"city": "新北市",
				"town": "石門區",
				"address": "石門區德茂里下員坑33-6號（白沙灣遊客中心樓頂）"
			},
			{
				"name": "三重",
				"altitude": "26.0",
				"longitude": "121.500629",
				"latitude": "25.057328",
				"city": "新北市",
				"town": "三重區",
				"address": "三重區環河南路100號"
			},
			{
				"name": "下盆",
				"altitude": "527.0",
				"longitude": "121.538622",
				"latitude": "24.771003",
				"city": "新北市",
				"town": "烏來區",
				"address": "烏來區東勢溪中游(步行一小時)"
			},
			{
				"name": "四十份",
				"altitude": "435.0",
				"longitude": "121.593283",
				"latitude": "24.934158",
				"city": "新北市",
				"town": "新店區",
				"address": "新店區北宜路旁(文山事業區第四林班)"
			},
			{
				"name": "國一N039K",
				"altitude": "181.0",
				"longitude": "121.383836",
				"latitude": "25.064361",
				"city": "新北市",
				"town": "國道1號北向39.32K ",
				"address": "國道1號北向39.32K"
			}
		]
	},
	{
		"city": "連江縣",
		"obversation": [
			{
				"name": "馬祖",
				"altitude": "97.8",
				"longitude": "119.923419",
				"latitude": "26.169269",
				"city": "連江縣",
				"town": "南竿鄉",
				"address": "南竿鄉四維村6鄰88號"
			},
			{
				"name": "東莒",
				"altitude": "16.0",
				"longitude": "119.980690",
				"latitude": "25.965200",
				"city": "連江縣",
				"town": "莒光鄉",
				"address": "莒光鄉福正村1號(福正抽水機房，莒光遊客中心後方)"
			},
			{
				"name": "東引",
				"altitude": "42.0",
				"longitude": "120.483631",
				"latitude": "26.358836",
				"city": "連江縣",
				"town": "東引鄉",
				"address": "東引鄉（東引機場候機室旁）"
			}
		]
	},
	{
		"city": "宜蘭縣",
		"obversation": [
			{
				"name": "蘇澳",
				"altitude": "24.9",
				"longitude": "121.857372",
				"latitude": "24.596736",
				"city": "宜蘭縣",
				"town": "蘇澳鎮",
				"address": "蘇澳鎮港區路1號6樓(蘇澳港行政大樓6樓)"
			},
			{
				"name": "宜蘭",
				"altitude": "7.2",
				"longitude": "121.756528",
				"latitude": "24.763975",
				"city": "宜蘭縣",
				"town": "宜蘭市",
				"address": "宜蘭市力行路150號"
			},
			{
				"name": "雙連埤",
				"altitude": "517.0",
				"longitude": "121.641303",
				"latitude": "24.753033",
				"city": "宜蘭縣",
				"town": "員山鄉",
				"address": "員山鄉雙連埤地區(需徒步20分鐘)"
			},
			{
				"name": "礁溪",
				"altitude": "10.0",
				"longitude": "121.765536",
				"latitude": "24.817544",
				"city": "宜蘭縣",
				"town": "礁溪鄉",
				"address": "礁溪鄉礁溪路四段23號(礁溪國民中學教室後宿舍旁)"
			},
			{
				"name": "玉蘭",
				"altitude": "442.0",
				"longitude": "121.587061",
				"latitude": "24.675286",
				"city": "宜蘭縣",
				"town": "大同鄉",
				"address": "大同鄉松羅村鹿場路11號(往松羅山頂瞭望亭旁)"
			},
			{
				"name": "太平山",
				"altitude": "1942.0",
				"longitude": "121.525656",
				"latitude": "24.505486",
				"city": "宜蘭縣",
				"town": "大同鄉",
				"address": "大同鄉太平山93林班地(林務局路標22.3k處)"
			},
			{
				"name": "南山",
				"altitude": "1260.0",
				"longitude": "121.381670",
				"latitude": "24.437420",
				"city": "宜蘭縣",
				"town": "大同鄉",
				"address": "大同鄉南山村4鄰埤南巷31-3號(南山國民小學內)"
			},
			{
				"name": "龜山島",
				"altitude": "398.0",
				"longitude": "121.953133",
				"latitude": "24.841667",
				"city": "宜蘭縣",
				"town": "頭城鎮",
				"address": "頭城鎮龜山島山頂401高地觀景台"
			},
			{
				"name": "東澳",
				"altitude": "22.0",
				"longitude": "121.833180",
				"latitude": "24.521960",
				"city": "宜蘭縣",
				"town": "南澳鄉",
				"address": "南澳鄉東岳村蘇花路三段209號(東澳國小校園內)"
			},
			{
				"name": "南澳",
				"altitude": "5.0",
				"longitude": "121.810220",
				"latitude": "24.449350",
				"city": "宜蘭縣",
				"town": "南澳鄉",
				"address": "南澳鄉中央氣象局地震中心系統維護課之南澳地震站"
			},
			{
				"name": "五結",
				"altitude": "15.0",
				"longitude": "121.797940",
				"latitude": "24.686370",
				"city": "宜蘭縣",
				"town": "五結鄉",
				"address": "五結鄉五結中路二段88號(五結國小)"
			},
			{
				"name": "頭城",
				"altitude": "5.0",
				"longitude": "121.830800",
				"latitude": "24.853230",
				"city": "宜蘭縣",
				"town": "頭城鎮",
				"address": "頭城鎮協天路468號(中華電信頭城海纜站內)"
			},
			{
				"name": "大礁溪",
				"altitude": "474.0",
				"longitude": "121.675050",
				"latitude": "24.791040",
				"city": "宜蘭縣",
				"town": "礁溪鄉",
				"address": "礁溪鄉二結村一鄰9-1號(國立宜蘭大學實驗林場)"
			},
			{
				"name": "三星",
				"altitude": "116.0",
				"longitude": "121.653020",
				"latitude": "24.668120",
				"city": "宜蘭縣",
				"town": "三星鄉",
				"address": "三星鄉月眉街54號(三星國中)"
			},
			{
				"name": "內城",
				"altitude": "63.0",
				"longitude": "121.687660",
				"latitude": "24.718130",
				"city": "宜蘭縣",
				"town": "員山鄉",
				"address": "員山鄉內城路545號(內城國民中小學)"
			},
			{
				"name": "冬山",
				"altitude": "17.0",
				"longitude": "121.793700",
				"latitude": "24.633730",
				"city": "宜蘭縣",
				"town": "冬山鄉",
				"address": "冬山鄉冬山路98-5號(冬山消防分隊)"
			},
			{
				"name": "羅東",
				"altitude": "25.0",
				"longitude": "121.749340",
				"latitude": "24.681840",
				"city": "宜蘭縣",
				"town": "羅東鎮",
				"address": "羅東鎮羅東運動公園南側(北成路二段停車場旁自行車道入口)"
			},
			{
				"name": "鶯子嶺",
				"altitude": "1012.0",
				"longitude": "121.792440",
				"latitude": "24.897540",
				"city": "宜蘭縣",
				"town": "頭城鎮",
				"address": "頭城鎮鶯子嶺通信站區內"
			},
			{
				"name": "翠峰湖",
				"altitude": "1885.0",
				"longitude": "121.608044",
				"latitude": "24.510856",
				"city": "宜蘭縣",
				"town": "大同鄉",
				"address": "大同鄉太平山翠峰湖停車場木棧道旁"
			},
			{
				"name": "大福",
				"altitude": "7.0",
				"longitude": "121.813890",
				"latitude": "24.800640",
				"city": "宜蘭縣",
				"town": "壯圍鄉",
				"address": "壯圍鄉大福路一段62巷26號(大福國小)"
			},
			{
				"name": "坪林石牌",
				"altitude": "573.0",
				"longitude": "121.773960",
				"latitude": "24.864780",
				"city": "宜蘭縣",
				"town": "頭城鎮",
				"address": "頭城鎮與新北市坪林區交界附近之國有林班地(位於坪林石牌附近山區)"
			},
			{
				"name": "員山",
				"altitude": "31.0",
				"longitude": "121.722470",
				"latitude": "24.744350",
				"city": "宜蘭縣",
				"town": "員山鄉",
				"address": "員山鄉員山村復興路39號(員山國小)"
			},
			{
				"name": "土場",
				"altitude": "392.0",
				"longitude": "121.495333",
				"latitude": "24.576533",
				"city": "宜蘭縣",
				"town": "大同鄉",
				"address": "大同鄉土場"
			},
			{
				"name": "鴛鴦湖",
				"altitude": "1711.0",
				"longitude": "121.412228",
				"latitude": "24.590269",
				"city": "宜蘭縣",
				"town": "大同鄉",
				"address": "大同鄉100線林道約15K(太平山事業區32林班內，鴛鴦湖工作站旁空地)"
			},
			{
				"name": "多加屯",
				"altitude": "2619.0",
				"longitude": "121.373189",
				"latitude": "24.368614",
				"city": "宜蘭縣",
				"town": "大同鄉",
				"address": "大同鄉南湖大山指標8.4K處(多加屯避難山屋附近)"
			},
			{
				"name": "白嶺",
				"altitude": "1397.0",
				"longitude": "121.519031",
				"latitude": "24.527819",
				"city": "宜蘭縣",
				"town": "大同鄉",
				"address": "大同鄉太平山白嶺苗圃內"
			},
			{
				"name": "西德山",
				"altitude": "1121.0",
				"longitude": "121.752608",
				"latitude": "24.560647",
				"city": "宜蘭縣",
				"town": "南澳鄉",
				"address": "南澳鄉安平坑林道(力霸產業道路)附近山區(南澳事業區28林班內)"
			},
			{
				"name": "西帽山",
				"altitude": "808.0",
				"longitude": "121.802628",
				"latitude": "24.555361",
				"city": "宜蘭縣",
				"town": "南澳鄉",
				"address": "南澳鄉台泥大白山運石道附近山區(羅東事業區96林班內)"
			},
			{
				"name": "樟樹山",
				"altitude": "566.0",
				"longitude": "121.783250",
				"latitude": "24.413930",
				"city": "宜蘭縣",
				"town": "南澳鄉",
				"address": "南澳鄉武塔村樟樹山附近山區"
			},
			{
				"name": "桃源谷",
				"altitude": "547.0",
				"longitude": "121.888875",
				"latitude": "24.962606",
				"city": "宜蘭縣",
				"town": "頭城鎮",
				"address": "頭城鎮及新北市貢寮區交界之桃源谷附近空地"
			},
			{
				"name": "牛鬥",
				"altitude": "280.0",
				"longitude": "121.573656",
				"latitude": "24.637836",
				"city": "宜蘭縣",
				"town": "大同鄉",
				"address": "大同鄉牛鬥地區"
			},
			{
				"name": "寒溪",
				"altitude": "105.0",
				"longitude": "121.716910",
				"latitude": "24.634000",
				"city": "宜蘭縣",
				"town": "冬山鄉",
				"address": "冬山鄉大進村大進七路51號(大進國民小學校園內)"
			},
			{
				"name": "新寮",
				"altitude": "101.0",
				"longitude": "121.751267",
				"latitude": "24.625561",
				"city": "宜蘭縣",
				"town": "冬山鄉",
				"address": "冬山鄉中山瀑布附近"
			},
			{
				"name": "烏石鼻",
				"altitude": "618.0",
				"longitude": "121.839383",
				"latitude": "24.482681",
				"city": "宜蘭縣",
				"town": "蘇澳鎮",
				"address": "蘇澳鎮之烏石鼻(南澳事業區第10鄰班地上)"
			},
			{
				"name": "東澳嶺",
				"altitude": "750.0",
				"longitude": "121.848500",
				"latitude": "24.537800",
				"city": "宜蘭縣",
				"town": "南澳鄉",
				"address": "南澳鄉"
			},
			{
				"name": "觀音海岸",
				"altitude": "665.0",
				"longitude": "121.778560",
				"latitude": "24.383190",
				"city": "宜蘭縣",
				"town": "南澳鄉",
				"address": "南澳鄉之林務局羅東林區管理處和平事業區91林班"
			},
			{
				"name": "北關",
				"altitude": "8.0",
				"longitude": "121.871880",
				"latitude": "24.906510",
				"city": "宜蘭縣",
				"town": "頭城鎮",
				"address": "頭城鎮濱海路三段(北關梗枋漁港北側路邊)"
			},
			{
				"name": "思源",
				"altitude": "2085.0",
				"longitude": "121.347214",
				"latitude": "24.393125",
				"city": "宜蘭縣",
				"town": "大同鄉",
				"address": "大同鄉與臺中市和平區交界之羅葉尾山步道邊(大甲溪事業區40林班內)"
			}
		]
	},
	{
		"city": "新竹市",
		"obversation": [
			{
				"name": "香山",
				"altitude": "15.0",
				"longitude": "120.905456",
				"latitude": "24.746892",
				"city": "新竹市",
				"town": "香山區",
				"address": "香山區長興街路旁"
			},
			{
				"name": "新竹市東區",
				"altitude": "65.0",
				"longitude": "120.986947",
				"latitude": "24.798676",
				"city": "新竹市",
				"town": "東區",
				"address": "東區光復路二段321號（工研院光復院區6館）"
			}
		]
	},
	{
		"city": "新竹縣",
		"obversation": [
			{
				"name": "新竹",
				"altitude": "26.9",
				"longitude": "121.014219",
				"latitude": "24.827853",
				"city": "新竹縣",
				"town": "竹北市",
				"address": "竹北市北崙里3鄰光明五街60號"
			},
			{
				"name": "梅花",
				"altitude": "523.0",
				"longitude": "121.208558",
				"latitude": "24.678347",
				"city": "新竹縣",
				"town": "尖石鄉",
				"address": "尖石鄉梅花村1鄰11號(梅花國小校園內)"
			},
			{
				"name": "關西",
				"altitude": "146.0",
				"longitude": "121.173947",
				"latitude": "24.798228",
				"city": "新竹縣",
				"town": "關西鎮",
				"address": "關西鎮北斗里北門口41號(關西國中校園內)"
			},
			{
				"name": "峨眉",
				"altitude": "87.0",
				"longitude": "121.017189",
				"latitude": "24.690500",
				"city": "新竹縣",
				"town": "峨眉鄉",
				"address": "峨眉鄉31541峨眉村峨眉街54號(峨眉國中校園內)"
			},
			{
				"name": "打鐵坑",
				"altitude": "223.0",
				"longitude": "121.150789",
				"latitude": "24.849664",
				"city": "新竹縣",
				"town": "新埔鎮",
				"address": "新埔鎮新北里8鄰大北坑28號旁"
			},
			{
				"name": "橫山",
				"altitude": "227.0",
				"longitude": "121.116930",
				"latitude": "24.711160",
				"city": "新竹縣",
				"town": "橫山鄉",
				"address": "橫山鄉橫山村橫山段426-6地號上"
			},
			{
				"name": "雪霸",
				"altitude": "1956.0",
				"longitude": "121.116050",
				"latitude": "24.526972",
				"city": "新竹縣",
				"town": "五峰鄉",
				"address": "五峰鄉桃山村民石380號(雪霸農場內)"
			},
			{
				"name": "竹東",
				"altitude": "147.0",
				"longitude": "121.057881",
				"latitude": "24.767147",
				"city": "新竹縣",
				"town": "竹東鎮",
				"address": "竹東鎮二重國民小學校園內"
			},
			{
				"name": "寶山",
				"altitude": "120.0",
				"longitude": "121.025192",
				"latitude": "24.735006",
				"city": "新竹縣",
				"town": "寶山鄉",
				"address": "寶山鄉新湖路280號旁"
			},
			{
				"name": "新豐",
				"altitude": "143.0",
				"longitude": "120.977210",
				"latitude": "24.870680",
				"city": "新竹縣",
				"town": "新豐鄉",
				"address": "新豐鄉松柏村康和路199號(小叮噹科學主題樂園)"
			},
			{
				"name": "湖口",
				"altitude": "97.0",
				"longitude": "121.043628",
				"latitude": "24.904794",
				"city": "新竹縣",
				"town": "湖口鄉",
				"address": "湖口鄉信勢村三鄰成功路109號(湖口消防分隊)"
			},
			{
				"name": "新埔",
				"altitude": "65.0",
				"longitude": "121.038340",
				"latitude": "24.847450",
				"city": "新竹縣",
				"town": "新埔鎮",
				"address": "新埔鎮下寮里43號義民廟右方路旁"
			},
			{
				"name": "鳥嘴山",
				"altitude": "839.0",
				"longitude": "121.283870",
				"latitude": "24.719090",
				"city": "新竹縣",
				"town": "尖石鄉",
				"address": "尖石鄉新樂村復興礦場"
			},
			{
				"name": "白蘭",
				"altitude": "1290.0",
				"longitude": "121.079947",
				"latitude": "24.579364",
				"city": "新竹縣",
				"town": "五峰鄉",
				"address": "五峰鄉桃山村"
			},
			{
				"name": "太閣南",
				"altitude": "1279.0",
				"longitude": "121.160575",
				"latitude": "24.632808",
				"city": "新竹縣",
				"town": "五峰鄉",
				"address": "五峰鄉羅山工作站後方山頂羅山瞭望台旁"
			},
			{
				"name": "飛鳳山",
				"altitude": "462.0",
				"longitude": "121.119178",
				"latitude": "24.766464",
				"city": "新竹縣",
				"town": "芎林鄉",
				"address": "芎林鄉王爺坑段83-7號地"
			},
			{
				"name": "外坪(五指山)",
				"altitude": "718.0",
				"longitude": "121.090961",
				"latitude": "24.644447",
				"city": "新竹縣",
				"town": "北埔鄉",
				"address": "北埔鄉大坪段內大坪小段36-54號地"
			}
		]
	},
	{
		"city": "桃園市",
		"obversation": [
			{
				"name": "新屋",
				"altitude": "20.6",
				"longitude": "121.047486",
				"latitude": "25.006744",
				"city": "桃園市",
				"town": "新屋區",
				"address": "新屋區東興路二段946號"
			},
			{
				"name": "復興",
				"altitude": "482.0",
				"longitude": "121.352281",
				"latitude": "24.820208",
				"city": "桃園市",
				"town": "復興區",
				"address": "復興區澤仁里中正路248號(介壽國民中學校園內)"
			},
			{
				"name": "桃園",
				"altitude": "105.0",
				"longitude": "121.323172",
				"latitude": "24.992425",
				"city": "桃園市",
				"town": "桃園區",
				"address": "桃園區成功路二段144號(桃園高級農工職業學校校園內)"
			},
			{
				"name": "八德",
				"altitude": "157.0",
				"longitude": "121.283289",
				"latitude": "24.928708",
				"city": "桃園市",
				"town": "八德區",
				"address": "八德區興仁里中山路94號(八德國民小學校園內)"
			},
			{
				"name": "大園",
				"altitude": "46.0",
				"longitude": "121.225958",
				"latitude": "25.047750",
				"city": "桃園市",
				"town": "大園區",
				"address": "大園區埔心里25鄰中正東路1段189巷35號(埔心國民小學)"
			},
			{
				"name": "觀音",
				"altitude": "72.0",
				"longitude": "121.153317",
				"latitude": "25.027072",
				"city": "桃園市",
				"town": "觀音區",
				"address": "觀音區廣福里10-42號(逸福農場)"
			},
			{
				"name": "蘆竹",
				"altitude": "19.0",
				"longitude": "121.265767",
				"latitude": "25.084275",
				"city": "桃園市",
				"town": "蘆竹區",
				"address": "蘆竹區坑口里14鄰旁"
			},
			{
				"name": "大溪",
				"altitude": "209.0",
				"longitude": "121.265547",
				"latitude": "24.882853",
				"city": "桃園市",
				"town": "大溪區",
				"address": "大溪區員林路2段450號(員樹林國小校園內)"
			},
			{
				"name": "平鎮",
				"altitude": "208.0",
				"longitude": "121.214636",
				"latitude": "24.897503",
				"city": "桃園市",
				"town": "平鎮區",
				"address": "平鎮區中豐路山頂段375巷45號(山豐國民小學校園內)"
			},
			{
				"name": "楊梅",
				"altitude": "176.0",
				"longitude": "121.143047",
				"latitude": "24.912375",
				"city": "桃園市",
				"town": "楊梅區",
				"address": "楊梅區金華街100號(楊心國小)"
			},
			{
				"name": "龍潭",
				"altitude": "250.0",
				"longitude": "121.221389",
				"latitude": "24.870056",
				"city": "桃園市",
				"town": "龍潭區",
				"address": "龍潭區中興路726號（龍潭消防分隊）"
			},
			{
				"name": "龜山",
				"altitude": "228.0",
				"longitude": "121.386560",
				"latitude": "25.028460",
				"city": "桃園市",
				"town": "龜山區",
				"address": "龜山區文化一路250號(國立體育大學田徑場)"
			},
			{
				"name": "中壢",
				"altitude": "151.0",
				"longitude": "121.256375",
				"latitude": "24.977661",
				"city": "桃園市",
				"town": "中壢區",
				"address": "中壢區成章四街120號(內壢高中樓頂)"
			},
			{
				"name": "大溪永福",
				"altitude": "143.0",
				"longitude": "121.324975",
				"latitude": "24.892936",
				"city": "桃園市",
				"town": "大溪區",
				"address": "大溪區信義路1165號（永福國小）"
			},
			{
				"name": "水尾",
				"altitude": "106.0",
				"longitude": "121.087161",
				"latitude": "24.940081",
				"city": "桃園市",
				"town": "楊梅區",
				"address": "楊梅區豐野里1鄰151號(富崗水尾工作站內)"
			}
		]
	},
	{
		"city": "苗栗縣",
		"obversation": [
			{
				"name": "竹南",
				"altitude": "19.0",
				"longitude": "120.888897",
				"latitude": "24.708978",
				"city": "苗栗縣",
				"town": "竹南鎮",
				"address": "竹南鎮大埔里仁愛路1092號(竹南鎮大埔國民小學內)"
			},
			{
				"name": "南庄",
				"altitude": "258.0",
				"longitude": "121.000214",
				"latitude": "24.601775",
				"city": "苗栗縣",
				"town": "南庄鄉",
				"address": "南庄鄉東村文化路3號(南庄國小校園內)"
			},
			{
				"name": "大湖",
				"altitude": "320.0",
				"longitude": "120.870870",
				"latitude": "24.414940",
				"city": "苗栗縣",
				"town": "大湖鄉",
				"address": "大湖鄉大寮村5鄰竹高屋34-1號附近"
			},
			{
				"name": "後龍",
				"altitude": "32.0",
				"longitude": "120.783933",
				"latitude": "24.606489",
				"city": "苗栗縣",
				"town": "後龍鎮",
				"address": "後龍鎮後龍溪橋旁高地"
			},
			{
				"name": "明德",
				"altitude": "84.0",
				"longitude": "120.885411",
				"latitude": "24.583486",
				"city": "苗栗縣",
				"town": "頭屋鄉",
				"address": "頭屋鄉明德水庫水利工作站屋頂上"
			},
			{
				"name": "通霄",
				"altitude": "40.0",
				"longitude": "120.704622",
				"latitude": "24.471892",
				"city": "苗栗縣",
				"town": "通霄鎮",
				"address": "通霄鎮城北里1鄰13號(通霄鎮城中國民小學內)"
			},
			{
				"name": "馬都安",
				"altitude": "850.0",
				"longitude": "120.930192",
				"latitude": "24.451272",
				"city": "苗栗縣",
				"town": "泰安鄉",
				"address": "泰安鄉錦水村(由泰安開車約2小時瞭望台旁)"
			},
			{
				"name": "頭份",
				"altitude": "26.0",
				"longitude": "120.912206",
				"latitude": "24.688247",
				"city": "苗栗縣",
				"town": "頭份市",
				"address": "頭份市中正路219號(苗栗縣頭份鎮頭份國小校園內)"
			},
			{
				"name": "造橋",
				"altitude": "27.0",
				"longitude": "120.864778",
				"latitude": "24.637056",
				"city": "苗栗縣",
				"town": "造橋鄉",
				"address": "造橋鄉造橋村14鄰3號(造橋國小)"
			},
			{
				"name": "苗栗",
				"altitude": "62.0",
				"longitude": "120.824575",
				"latitude": "24.564569",
				"city": "苗栗縣",
				"town": "苗栗市",
				"address": "苗栗市中正路241號(建功國小)"
			},
			{
				"name": "銅鑼",
				"altitude": "160.0",
				"longitude": "120.790853",
				"latitude": "24.489681",
				"city": "苗栗縣",
				"town": "銅鑼鄉",
				"address": "銅鑼鄉福興村文化街1號(銅鑼國小)"
			},
			{
				"name": "卓蘭",
				"altitude": "344.0",
				"longitude": "120.824753",
				"latitude": "24.312764",
				"city": "苗栗縣",
				"town": "卓蘭鎮",
				"address": "卓蘭鎮中山路127號(卓蘭鎮公所)"
			},
			{
				"name": "西湖",
				"altitude": "53.0",
				"longitude": "120.748500",
				"latitude": "24.562947",
				"city": "苗栗縣",
				"town": "西湖鄉",
				"address": "西湖鄉二湖村2鄰22號(僑文國小)"
			},
			{
				"name": "獅潭",
				"altitude": "220.0",
				"longitude": "120.920042",
				"latitude": "24.539133",
				"city": "苗栗縣",
				"town": "獅潭鄉",
				"address": "獅潭鄉新店村11鄰103-2號(獅潭鄉公所圖書館樓頂)"
			},
			{
				"name": "苑裡",
				"altitude": "37.0",
				"longitude": "120.653053",
				"latitude": "24.439714",
				"city": "苗栗縣",
				"town": "苑裡鎮",
				"address": "苑裡鎮信義路1號(苑裡鎮公所)"
			},
			{
				"name": "大河",
				"altitude": "104.0",
				"longitude": "120.948578",
				"latitude": "24.618069",
				"city": "苗栗縣",
				"town": "三灣鄉",
				"address": "三灣鄉大河村48號(大河派出所)"
			},
			{
				"name": "高鐵苗栗",
				"altitude": "34.0",
				"longitude": "120.826094",
				"latitude": "24.607250",
				"city": "苗栗縣",
				"town": "後龍鎮",
				"address": "後龍鎮高鐵三路268號(高鐵苗栗站外)"
			},
			{
				"name": "三義",
				"altitude": "507.0",
				"longitude": "120.749820",
				"latitude": "24.405480",
				"city": "苗栗縣",
				"town": "苗栗縣",
				"address": "苗栗縣三義鄉130縣道13.5K附近（慈濟山茶園內）"
			},
			{
				"name": "象鼻",
				"altitude": "950.0",
				"longitude": "120.940228",
				"latitude": "24.368617",
				"city": "苗栗縣",
				"town": "泰安鄉",
				"address": "泰安鄉象鼻村"
			},
			{
				"name": "松安",
				"altitude": "1325.0",
				"longitude": "120.986022",
				"latitude": "24.397972",
				"city": "苗栗縣",
				"town": "泰安鄉",
				"address": "泰安鄉雪霸國家公園二本松解說站旁"
			},
			{
				"name": "鳳美",
				"altitude": "576.0",
				"longitude": "121.034747",
				"latitude": "24.554803",
				"city": "苗栗縣",
				"town": "南庄鄉",
				"address": "南庄鄉東河村24鄰石門1號(南庄往鹿場途中)"
			},
			{
				"name": "新開",
				"altitude": "326.0",
				"longitude": "120.827019",
				"latitude": "24.347703",
				"city": "苗栗縣",
				"town": "大湖鄉",
				"address": "大湖鄉新開村新開4鄰20號旁"
			},
			{
				"name": "南勢",
				"altitude": "125.0",
				"longitude": "120.734842",
				"latitude": "24.572486",
				"city": "苗栗縣",
				"town": "後龍鎮",
				"address": "後龍鎮南港里南勢山"
			},
			{
				"name": "南礦",
				"altitude": "1209.0",
				"longitude": "121.002836",
				"latitude": "24.538278",
				"city": "苗栗縣",
				"town": "南庄鄉",
				"address": "南庄鄉蓬萊林道末端(南庄事業區18林班地)"
			},
			{
				"name": "南勢山",
				"altitude": "977.0",
				"longitude": "120.923831",
				"latitude": "24.421669",
				"city": "苗栗縣",
				"town": "泰安鄉",
				"address": "泰安鄉大興村(從泰安國小進入站址車程約10分鐘)"
			},
			{
				"name": "南湖",
				"altitude": "786.0",
				"longitude": "120.837533",
				"latitude": "24.401350",
				"city": "苗栗縣",
				"town": "大湖鄉",
				"address": "大湖鄉(位於南湖台3線135k處之吊樑道山上)"
			},
			{
				"name": "八卦",
				"altitude": "737.0",
				"longitude": "120.927619",
				"latitude": "24.491756",
				"city": "苗栗縣",
				"town": "泰安鄉",
				"address": "泰安鄉(與八卦派出所相距約1.2k處)"
			},
			{
				"name": "馬拉邦山",
				"altitude": "990.0",
				"longitude": "120.901656",
				"latitude": "24.367306",
				"city": "苗栗縣",
				"town": "大湖鄉",
				"address": "大湖鄉東興村(馬拉邦山登山口)"
			},
			{
				"name": "泰安",
				"altitude": "1409.0",
				"longitude": "120.968036",
				"latitude": "24.489017",
				"city": "苗栗縣",
				"town": "泰安鄉",
				"address": "泰安鄉橫龍古道上(走路約5分鐘)之大湖事業區18林班地"
			},
			{
				"name": "公館",
				"altitude": "83.0",
				"longitude": "120.830806",
				"latitude": "24.526914",
				"city": "苗栗縣",
				"town": "公館鄉",
				"address": "公館鄉鶴岡村178號(鶴岡國中)"
			},
			{
				"name": "國三N149K",
				"altitude": "53.0",
				"longitude": "121.680019",
				"latitude": "24.463414",
				"city": "苗栗縣",
				"town": "國道3號北向149K ",
				"address": "國道3號北向149K"
			}
		]
	},
	{
		"city": "臺中市",
		"obversation": [
			{
				"name": "臺中",
				"altitude": "84.0",
				"longitude": "120.684075",
				"latitude": "24.145736",
				"city": "臺中市",
				"town": "北區",
				"address": "北區精武路295號"
			},
			{
				"name": "梧棲",
				"altitude": "31.7",
				"longitude": "120.523381",
				"latitude": "24.256003",
				"city": "臺中市",
				"town": "梧棲區",
				"address": "梧棲區臺灣大道十段2號海港大樓6樓"
			},
			{
				"name": "大肚",
				"altitude": "273.0",
				"longitude": "120.572117",
				"latitude": "24.152950",
				"city": "臺中市",
				"town": "大肚區",
				"address": "大肚區瑞井里遊園路一段2號(臺中區監理所內)"
			},
			{
				"name": "雪山圈谷",
				"altitude": "3587.0",
				"longitude": "121.236339",
				"latitude": "24.388594",
				"city": "臺中市",
				"town": "和平區",
				"address": "和平區(往雪山主峰路上9.8公里處右邊)"
			},
			{
				"name": "石岡",
				"altitude": "311.0",
				"longitude": "120.777644",
				"latitude": "24.276061",
				"city": "臺中市",
				"town": "石岡區",
				"address": "石岡區石岡街6號 (臺中市石岡區衛生所)"
			},
			{
				"name": "中坑",
				"altitude": "983.0",
				"longitude": "120.903319",
				"latitude": "24.248517",
				"city": "臺中市",
				"town": "和平區",
				"address": "和平區中坑里中坑段39地號內"
			},
			{
				"name": "審馬陣",
				"altitude": "3171.0",
				"longitude": "121.420300",
				"latitude": "24.381675",
				"city": "臺中市",
				"town": "和平區",
				"address": "和平區南湖大山指標16.2K處(審馬陣山附近)"
			},
			{
				"name": "南湖圈谷",
				"altitude": "3557.0",
				"longitude": "121.444667",
				"latitude": "24.363714",
				"city": "臺中市",
				"town": "和平區",
				"address": "和平區南湖大山指標20K處(南湖主峰東峰岔路附近)"
			},
			{
				"name": "東勢",
				"altitude": "379.0",
				"longitude": "120.833047",
				"latitude": "24.246428",
				"city": "臺中市",
				"town": "東勢區",
				"address": "東勢區東關路647號(東勢林區管理處雙崎工作站內)"
			},
			{
				"name": "梨山",
				"altitude": "2215.0",
				"longitude": "121.243669",
				"latitude": "24.247522",
				"city": "臺中市",
				"town": "和平區",
				"address": "和平區梨山里福壽路29號（福壽山農場）"
			},
			{
				"name": "大甲",
				"altitude": "100.0",
				"longitude": "120.640403",
				"latitude": "24.347667",
				"city": "臺中市",
				"town": "大甲區",
				"address": "大甲區開元路71號(大甲高級工業職業學校內)"
			},
			{
				"name": "大坑",
				"altitude": "145.0",
				"longitude": "120.722289",
				"latitude": "24.173142",
				"city": "臺中市",
				"town": "北屯區",
				"address": "北屯區軍福十三路268號(東山消防分隊)"
			},
			{
				"name": "中竹林",
				"altitude": "425.0",
				"longitude": "120.751061",
				"latitude": "24.103556",
				"city": "臺中市",
				"town": "太平區",
				"address": "太平區長龍路中埔二號橋至站址直線距離約1.7km"
			},
			{
				"name": "神岡",
				"altitude": "194.0",
				"longitude": "120.658314",
				"latitude": "24.272481",
				"city": "臺中市",
				"town": "神岡區",
				"address": "神岡區三民路639號(圳堵國小校園南側大樓屋頂平台)"
			},
			{
				"name": "大安",
				"altitude": "30.0",
				"longitude": "120.588025",
				"latitude": "24.345061",
				"city": "臺中市",
				"town": "大安區",
				"address": "大安區中庄里中山南路296號(大安國小)"
			},
			{
				"name": "后里",
				"altitude": "253.0",
				"longitude": "120.729725",
				"latitude": "24.310436",
				"city": "臺中市",
				"town": "后里區",
				"address": "后里區甲后路110號(后里國小)"
			},
			{
				"name": "豐原",
				"altitude": "230.0",
				"longitude": "120.720692",
				"latitude": "24.254322",
				"city": "臺中市",
				"town": "豐原區",
				"address": "豐原區豐榮里12鄰新生北路155號(豐原國小)"
			},
			{
				"name": "大里",
				"altitude": "75.0",
				"longitude": "120.701378",
				"latitude": "24.092464",
				"city": "臺中市",
				"town": "大里區",
				"address": "大里區文化街120號(塗城國小)"
			},
			{
				"name": "潭子",
				"altitude": "175.0",
				"longitude": "120.703933",
				"latitude": "24.213106",
				"city": "臺中市",
				"town": "潭子區",
				"address": "潭子區中山路二段435號(潭子國小)"
			},
			{
				"name": "清水",
				"altitude": "26.0",
				"longitude": "120.562242",
				"latitude": "24.312297",
				"city": "臺中市",
				"town": "清水區",
				"address": "清水區護岸路37號(高美國小)"
			},
			{
				"name": "外埔",
				"altitude": "149.0",
				"longitude": "120.705686",
				"latitude": "24.347817",
				"city": "臺中市",
				"town": "外埔區",
				"address": "外埔區土城里土城西路55號(安定國小)"
			},
			{
				"name": "龍井",
				"altitude": "20.0",
				"longitude": "120.528972",
				"latitude": "24.184536",
				"city": "臺中市",
				"town": "龍井區",
				"address": "龍井區西里龍門路51號(龍井國小)"
			},
			{
				"name": "烏日",
				"altitude": "43.0",
				"longitude": "120.624103",
				"latitude": "24.107058",
				"city": "臺中市",
				"town": "烏日區",
				"address": "烏日區中山路二段196號(烏日國小)"
			},
			{
				"name": "西屯",
				"altitude": "111.0",
				"longitude": "120.641275",
				"latitude": "24.179494",
				"city": "臺中市",
				"town": "西屯區",
				"address": "西屯區西屯路二段300號(西屯國小)"
			},
			{
				"name": "南屯",
				"altitude": "74.0",
				"longitude": "120.637969",
				"latitude": "24.137006",
				"city": "臺中市",
				"town": "南屯區",
				"address": "南屯區黎明路一段968號(南屯國小)"
			},
			{
				"name": "新社",
				"altitude": "525.0",
				"longitude": "120.815806",
				"latitude": "24.200172",
				"city": "臺中市",
				"town": "新社區",
				"address": "新社區大南里興中街46號(農委會種苗改良繁殖場)"
			},
			{
				"name": "大雅(中科園區)",
				"altitude": "166.0",
				"longitude": "120.624450",
				"latitude": "24.215280",
				"city": "臺中市",
				"town": "大雅區",
				"address": "大雅區中部科學工業園區臺中園區(汙水處理機房樓頂)"
			},
			{
				"name": "桃山",
				"altitude": "3313.0",
				"longitude": "121.303808",
				"latitude": "24.432739",
				"city": "臺中市",
				"town": "和平區",
				"address": "和平區(位於往桃山山屋叉路解說牌附近)"
			},
			{
				"name": "雪山東峰",
				"altitude": "3193.0",
				"longitude": "121.268675",
				"latitude": "24.388792",
				"city": "臺中市",
				"town": "和平區",
				"address": "和平區(位於雪山東峰直升機停機坪東南東方60公尺處)"
			},
			{
				"name": "烏石坑",
				"altitude": "983.0",
				"longitude": "120.947620",
				"latitude": "24.273500",
				"city": "臺中市",
				"town": "和平區",
				"address": "和平區東崎路2段烏石巷109號"
			},
			{
				"name": "上谷關",
				"altitude": "1000.0",
				"longitude": "121.018644",
				"latitude": "24.203483",
				"city": "臺中市",
				"town": "和平區",
				"address": "和平區(博愛國小谷關分校附近)"
			},
			{
				"name": "稍來",
				"altitude": "2205.0",
				"longitude": "121.001142",
				"latitude": "24.265689",
				"city": "臺中市",
				"town": "和平區",
				"address": "和平區八仙山事業區49林班地船型山苗圃廢棄觀測坪附近"
			},
			{
				"name": "新伯公",
				"altitude": "417.0",
				"longitude": "120.841069",
				"latitude": "24.221361",
				"city": "臺中市",
				"town": "東勢區",
				"address": "東勢區詒福段163地號(台電公司門前右前方)"
			},
			{
				"name": "雪嶺",
				"altitude": "2620.0",
				"longitude": "121.026642",
				"latitude": "24.280586",
				"city": "臺中市",
				"town": "和平區",
				"address": "和平區雪嶺地區八仙山事業區60林班地小雪山莊後方水塔後山頂"
			},
			{
				"name": "桐林",
				"altitude": "130.0",
				"longitude": "120.735194",
				"latitude": "24.066172",
				"city": "臺中市",
				"town": "霧峰區",
				"address": "霧峰區桐林里民生路(桐林國小斜對面)"
			},
			{
				"name": "白冷",
				"altitude": "610.0",
				"longitude": "120.929889",
				"latitude": "24.182844",
				"city": "臺中市",
				"town": "和平區",
				"address": "和平區天輪里天輪巷42號(臺中市和平區白冷國民小學校園內)"
			},
			{
				"name": "白毛台",
				"altitude": "639.0",
				"longitude": "120.886933",
				"latitude": "24.158325",
				"city": "臺中市",
				"town": "新社區",
				"address": "新社區福興里福民路13號旁"
			},
			{
				"name": "龍安",
				"altitude": "563.0",
				"longitude": "120.831961",
				"latitude": "24.160500",
				"city": "臺中市",
				"town": "新社區",
				"address": "新社區中和里內(距龍安橋約1.2k處)"
			},
			{
				"name": "伯公龍",
				"altitude": "500.0",
				"longitude": "120.849047",
				"latitude": "24.272392",
				"city": "臺中市",
				"town": "東勢區",
				"address": "東勢區勢林街(宏覺寺旁)"
			},
			{
				"name": "慶福山",
				"altitude": "810.0",
				"longitude": "120.848378",
				"latitude": "24.180853",
				"city": "臺中市",
				"town": "東勢區",
				"address": "東勢區(台8線10.5k往馬鞍農場方向.車程約半小時)"
			},
			{
				"name": "清水林",
				"altitude": "723.0",
				"longitude": "120.820419",
				"latitude": "24.071242",
				"city": "臺中市",
				"town": "太平區",
				"address": "太平區136縣道9.5k處旁約500公尺"
			},
			{
				"name": "德基",
				"altitude": "1970.0",
				"longitude": "121.190261",
				"latitude": "24.254783",
				"city": "臺中市",
				"town": "和平區",
				"address": "和平區台8甲線69-70k處，彎入勝利路接翠巒產業道路約6.2km，路邊白色水塔旁"
			}
		]
	},
	{
		"city": "彰化縣",
		"obversation": [
			{
				"name": "田中",
				"altitude": "48.6",
				"longitude": "120.581348",
				"latitude": "23.873776",
				"city": "彰化縣",
				"town": "田中鎮",
				"address": "田中鎮中潭里4鄰高鐵三路1段167號"
			},
			{
				"name": "芬園",
				"altitude": "110.0",
				"longitude": "120.621300",
				"latitude": "24.015678",
				"city": "彰化縣",
				"town": "芬園鄉",
				"address": "芬園鄉楓坑村大埔崙產業道路上(芬園往臺灣民俗村路上)"
			},
			{
				"name": "鹿港",
				"altitude": "17.0",
				"longitude": "120.430481",
				"latitude": "24.075300",
				"city": "彰化縣",
				"town": "鹿港鎮",
				"address": "鹿港鎮海埔里顏厝巷67號(行政院退輔會魚殖管理處彰化分場內)"
			},
			{
				"name": "員林",
				"altitude": "34.0",
				"longitude": "120.585597",
				"latitude": "23.946503",
				"city": "彰化縣",
				"town": "員林市",
				"address": "員林市萬年里明倫路2號(明倫國中內)"
			},
			{
				"name": "溪湖",
				"altitude": "27.0",
				"longitude": "120.479122",
				"latitude": "23.948350",
				"city": "彰化縣",
				"town": "溪湖鎮",
				"address": "溪湖鎮大竹里彰水路2段725號(湖南國民小學內)"
			},
			{
				"name": "溪州",
				"altitude": "50.0",
				"longitude": "120.499093",
				"latitude": "23.851589",
				"city": "彰化縣",
				"town": "溪州鄉",
				"address": "溪州鄉溪下路四段560號(溪州鄉公所)"
			},
			{
				"name": "二林",
				"altitude": "27.0",
				"longitude": "120.376081",
				"latitude": "23.903325",
				"city": "彰化縣",
				"town": "二林鎮",
				"address": "二林鎮仁愛路200號(二林消防分隊)"
			},
			{
				"name": "大城",
				"altitude": "24.0",
				"longitude": "120.320935",
				"latitude": "23.852487",
				"city": "彰化縣",
				"town": "大城鄉",
				"address": "大城鄉東城村中平路185號(大城鄉公所)"
			},
			{
				"name": "竹塘",
				"altitude": "31.0",
				"longitude": "120.382486",
				"latitude": "23.846617",
				"city": "彰化縣",
				"town": "竹塘鄉",
				"address": "竹塘鄉永安村東陽路二段221號(永安派出所)"
			},
			{
				"name": "高鐵彰化",
				"altitude": "53.0",
				"longitude": "120.574608",
				"latitude": "23.875247",
				"city": "彰化縣",
				"town": "田中鎮",
				"address": "田中鎮站區路二段99號(高鐵彰化站外)"
			},
			{
				"name": "福興",
				"altitude": "15.0",
				"longitude": "120.437669",
				"latitude": "24.041289",
				"city": "彰化縣",
				"town": "福興鄉",
				"address": "福興鄉員鹿路二段270號(福興國中)"
			},
			{
				"name": "秀水",
				"altitude": "27.0",
				"longitude": "120.503869",
				"latitude": "24.034050",
				"city": "彰化縣",
				"town": "秀水鄉",
				"address": "秀水鄉安東村中山路257號(秀水國小)"
			},
			{
				"name": "埔鹽",
				"altitude": "15.0",
				"longitude": "120.431683",
				"latitude": "24.000394",
				"city": "彰化縣",
				"town": "埔鹽鄉",
				"address": "埔鹽鄉永樂村永樂路600號(永樂國小)"
			},
			{
				"name": "埔心",
				"altitude": "26.0",
				"longitude": "120.525456",
				"latitude": "23.947633",
				"city": "彰化縣",
				"town": "埔心鄉",
				"address": "埔心鄉舊館村員鹿路四段201號(舊館國小)"
			},
			{
				"name": "田尾",
				"altitude": "29.0",
				"longitude": "120.509389",
				"latitude": "23.901669",
				"city": "彰化縣",
				"town": "田尾鄉",
				"address": "田尾鄉中正路二段101號(仁豐國小)"
			},
			{
				"name": "埤頭",
				"altitude": "27.0",
				"longitude": "120.452806",
				"latitude": "23.866003",
				"city": "彰化縣",
				"town": "埤頭鄉",
				"address": "埤頭鄉大湖村大湖路260號(大湖國小)"
			},
			{
				"name": "北斗",
				"altitude": "32.0",
				"longitude": "120.514222",
				"latitude": "23.877586",
				"city": "彰化縣",
				"town": "北斗鎮",
				"address": "北斗鎮斗苑路二段150號(螺陽國小)"
			},
			{
				"name": "社頭",
				"altitude": "45.0",
				"longitude": "120.586200",
				"latitude": "23.897647",
				"city": "彰化縣",
				"town": "社頭鄉",
				"address": "社頭鄉社斗路一段258號(社頭國小)"
			},
			{
				"name": "芳苑",
				"altitude": "12.0",
				"longitude": "120.320025",
				"latitude": "23.922303",
				"city": "彰化縣",
				"town": "芳苑鄉",
				"address": "芳苑鄉仁愛村斗苑路芳苑段211號(芳苑國中)"
			},
			{
				"name": "二水",
				"altitude": "92.0",
				"longitude": "120.617300",
				"latitude": "23.810742",
				"city": "彰化縣",
				"town": "二水鄉",
				"address": "二水鄉文化村119號(二水國小)"
			},
			{
				"name": "伸港",
				"altitude": "24.0",
				"longitude": "120.484403",
				"latitude": "24.148933",
				"city": "彰化縣",
				"town": "伸港鄉",
				"address": "伸港鄉新港村和平路60號(新港國小)"
			},
			{
				"name": "線西",
				"altitude": "20.0",
				"longitude": "120.443536",
				"latitude": "24.143358",
				"city": "彰化縣",
				"town": "線西鄉",
				"address": "線西鄉慶福路300號（彰濱工業區線西服務大樓內)"
			},
			{
				"name": "花壇",
				"altitude": "42.0",
				"longitude": "120.549461",
				"latitude": "24.032076",
				"city": "彰化縣",
				"town": "彰化縣",
				"address": "彰化縣花壇鄉彰員路2段580號（花壇國中內）"
			},
			{
				"name": "下水埔",
				"altitude": "110.0",
				"longitude": "120.567600",
				"latitude": "23.816114",
				"city": "彰化縣",
				"town": "溪州鄉",
				"address": "溪州鄉大莊國小(大庄村中橫巷1號)"
			}
		]
	},
	{
		"city": "南投縣",
		"obversation": [
			{
				"name": "玉山",
				"altitude": "3844.8",
				"longitude": "120.959522",
				"latitude": "23.487614",
				"city": "南投縣",
				"town": "信義鄉",
				"address": "信義鄉玉山北峰1號"
			},
			{
				"name": "日月潭",
				"altitude": "1017.5",
				"longitude": "120.908050",
				"latitude": "23.881325",
				"city": "南投縣",
				"town": "魚池鄉",
				"address": "魚池鄉水社村中山路270巷14號"
			},
			{
				"name": "埔里",
				"altitude": "440.0",
				"longitude": "120.952425",
				"latitude": "23.972169",
				"city": "南投縣",
				"town": "埔里鎮",
				"address": "埔里鎮大城里大城路169號(南投縣立大成國民中學內)"
			},
			{
				"name": "中寮",
				"altitude": "192.0",
				"longitude": "120.766406",
				"latitude": "23.884447",
				"city": "南投縣",
				"town": "中寮鄉",
				"address": "中寮鄉復興村初中巷50號(中寮國中校園內)"
			},
			{
				"name": "草屯",
				"altitude": "120.0",
				"longitude": "120.680850",
				"latitude": "23.973672",
				"city": "南投縣",
				"town": "草屯鎮",
				"address": "草屯鎮中山里草鞋墩1街8號(草屯鎮公所樓頂)"
			},
			{
				"name": "昆陽",
				"altitude": "3076.0",
				"longitude": "121.273642",
				"latitude": "24.121322",
				"city": "南投縣",
				"town": "仁愛鄉",
				"address": "仁愛鄉昆陽警察局後方下坡處(太魯閣國家公園)石碑後20公尺"
			},
			{
				"name": "神木村",
				"altitude": "1595.0",
				"longitude": "120.843667",
				"latitude": "23.532742",
				"city": "南投縣",
				"town": "信義鄉",
				"address": "信義鄉神木村神木工作分站後方山坡上(對高岳營林區29林班地444號土地)"
			},
			{
				"name": "合歡山",
				"altitude": "3402.0",
				"longitude": "121.272547",
				"latitude": "24.143442",
				"city": "南投縣",
				"town": "仁愛鄉",
				"address": "仁愛鄉(近合歡山三角點，由松雪樓開車約15分鐘，大甲溪事業區第81林班)"
			},
			{
				"name": "廬山",
				"altitude": "1562.0",
				"longitude": "121.181808",
				"latitude": "24.033311",
				"city": "南投縣",
				"town": "仁愛鄉",
				"address": "仁愛鄉大同村仁和路21號(埔里-霧社收費站-盧山電力公司瞭望台)"
			},
			{
				"name": "信義",
				"altitude": "536.0",
				"longitude": "120.851036",
				"latitude": "23.689694",
				"city": "南投縣",
				"town": "信義鄉",
				"address": "信義鄉自強村綠美巷(內茅埔營林區23林班地)"
			},
			{
				"name": "鳳凰",
				"altitude": "910.0",
				"longitude": "120.787347",
				"latitude": "23.728081",
				"city": "南投縣",
				"town": "鹿谷鄉",
				"address": "鹿谷鄉鳳凰鳥園旁"
			},
			{
				"name": "竹山",
				"altitude": "161.0",
				"longitude": "120.688156",
				"latitude": "23.761225",
				"city": "南投縣",
				"town": "竹山鎮",
				"address": "竹山鎮延和里向學街32號(竹山國民小學內)"
			},
			{
				"name": "水里",
				"altitude": "300.0",
				"longitude": "120.849792",
				"latitude": "23.812553",
				"city": "南投縣",
				"town": "水里鄉",
				"address": "水里鄉中山路一段515號(玉山國家公園管理處)"
			},
			{
				"name": "魚池",
				"altitude": "671.0",
				"longitude": "120.941350",
				"latitude": "23.895703",
				"city": "南投縣",
				"town": "魚池鄉",
				"address": "魚池鄉東池村魚池街194號(魚池鄉衛生所)"
			},
			{
				"name": "集集",
				"altitude": "258.0",
				"longitude": "120.801467",
				"latitude": "23.828206",
				"city": "南投縣",
				"town": "集集鎮",
				"address": "集集鎮民生東路1號(農委會特有生物研究保育中心)"
			},
			{
				"name": "仁愛",
				"altitude": "1184.0",
				"longitude": "121.132206",
				"latitude": "24.022122",
				"city": "南投縣",
				"town": "仁愛鄉",
				"address": "仁愛鄉仁和路50號(台電公司仁愛服務所)"
			},
			{
				"name": "名間",
				"altitude": "180.0",
				"longitude": "120.701447",
				"latitude": "23.837053",
				"city": "南投縣",
				"town": "名間鄉",
				"address": "名間鄉董門巷2號(名間鄉立體停車場)"
			},
			{
				"name": "國姓",
				"altitude": "305.0",
				"longitude": "120.855072",
				"latitude": "24.037803",
				"city": "南投縣",
				"town": "國姓鄉",
				"address": "國姓鄉民族街40號(國姓鄉老人文康活動中心)"
			},
			{
				"name": "南投",
				"altitude": "110.0",
				"longitude": "120.687331",
				"latitude": "23.911469",
				"city": "南投縣",
				"town": "南投市",
				"address": "南投市龍泉里玉井街5號(南投市公所樓頂)"
			},
			{
				"name": "梅峰",
				"altitude": "2165.0",
				"longitude": "121.173572",
				"latitude": "24.085272",
				"city": "南投縣",
				"town": "仁愛鄉",
				"address": "仁愛鄉大同村仁和路215號(梅峰農場)"
			},
			{
				"name": "萬大林道",
				"altitude": "1601.0",
				"longitude": "121.091411",
				"latitude": "23.928228",
				"city": "南投縣",
				"town": "仁愛鄉",
				"address": "仁愛鄉曲冰段(萬大林道約7.2k附近高地)"
			},
			{
				"name": "玉山風口",
				"altitude": "3860.0",
				"longitude": "120.955994",
				"latitude": "23.470489",
				"city": "南投縣",
				"town": "信義鄉",
				"address": "信義鄉(玉山主峰往北峰叉路空地附近)"
			},
			{
				"name": "小奇萊",
				"altitude": "3014.0",
				"longitude": "121.295717",
				"latitude": "24.131764",
				"city": "南投縣",
				"town": "仁愛鄉",
				"address": "仁愛鄉小奇萊步道指標1.5K處附近"
			},
			{
				"name": "奇萊稜線",
				"altitude": "3344.0",
				"longitude": "121.326456",
				"latitude": "24.109231",
				"city": "南投縣",
				"town": "仁愛鄉",
				"address": "仁愛鄉奇萊連峰指標6.4K處(奇萊山屋附近)"
			},
			{
				"name": "翠峰",
				"altitude": "2454.0",
				"longitude": "121.205211",
				"latitude": "24.109397",
				"city": "南投縣",
				"town": "仁愛鄉",
				"address": "仁愛鄉翠峰段30地號東側旁(臺14甲線19-19.5k處的長途通信機房旁)"
			},
			{
				"name": "瑞岩",
				"altitude": "1840.0",
				"longitude": "121.183450",
				"latitude": "24.123772",
				"city": "南投縣",
				"town": "仁愛鄉",
				"address": "仁愛鄉"
			},
			{
				"name": "清流",
				"altitude": "934.0",
				"longitude": "120.962997",
				"latitude": "24.080775",
				"city": "南投縣",
				"town": "仁愛鄉",
				"address": "仁愛鄉互助村"
			},
			{
				"name": "長豐",
				"altitude": "736.0",
				"longitude": "120.879897",
				"latitude": "24.102039",
				"city": "南投縣",
				"town": "國姓鄉",
				"address": "國姓鄉長豐村東二巷71號(仙徠山莊內)"
			},
			{
				"name": "雙冬",
				"altitude": "630.0",
				"longitude": "120.802189",
				"latitude": "23.967378",
				"city": "南投縣",
				"town": "草屯鎮",
				"address": "草屯鎮雙冬里"
			},
			{
				"name": "六分寮",
				"altitude": "428.0",
				"longitude": "120.637800",
				"latitude": "23.925070",
				"city": "南投縣",
				"town": "南投市",
				"address": "南投市鳳鳴里八卦路831號(南投縣政府消防局第一大隊鳳鳴分隊)"
			},
			{
				"name": "阿眉",
				"altitude": "1710.0",
				"longitude": "120.994672",
				"latitude": "24.126300",
				"city": "南投縣",
				"town": "仁愛鄉",
				"address": "仁愛鄉(水利局雨量站旁)"
			},
			{
				"name": "萬大",
				"altitude": "1120.0",
				"longitude": "121.132261",
				"latitude": "23.979817",
				"city": "南投縣",
				"town": "仁愛鄉",
				"address": "仁愛鄉親愛村萬大水庫宿舍旁"
			},
			{
				"name": "武界",
				"altitude": "948.0",
				"longitude": "121.052483",
				"latitude": "23.913225",
				"city": "南投縣",
				"town": "仁愛鄉",
				"address": "仁愛鄉法治村"
			},
			{
				"name": "丹大",
				"altitude": "2568.0",
				"longitude": "121.141147",
				"latitude": "23.753747",
				"city": "南投縣",
				"town": "信義鄉",
				"address": "信義鄉丹大事業區第10林班地(瞭望臺旁)"
			},
			{
				"name": "和社",
				"altitude": "825.0",
				"longitude": "120.888861",
				"latitude": "23.591131",
				"city": "南投縣",
				"town": "信義鄉",
				"address": "信義鄉中橫同富村同和巷47號和社分社觀測坪內"
			},
			{
				"name": "溪頭",
				"altitude": "1810.0",
				"longitude": "120.807647",
				"latitude": "23.661789",
				"city": "南投縣",
				"town": "鹿谷鄉",
				"address": "鹿谷鄉內湖村森林巷溪頭林營區(鳳凰山瞭望台旁)"
			},
			{
				"name": "大鞍",
				"altitude": "1515.0",
				"longitude": "120.760017",
				"latitude": "23.678381",
				"city": "南投縣",
				"town": "竹山鎮",
				"address": "竹山鎮樟空倫山之三角點附近"
			},
			{
				"name": "桶頭",
				"altitude": "311.0",
				"longitude": "120.654117",
				"latitude": "23.641944",
				"city": "南投縣",
				"town": "竹山鎮",
				"address": "竹山鎮鯉南路338號旁"
			},
			{
				"name": "卡奈托灣",
				"altitude": "1700.0",
				"longitude": "121.087872",
				"latitude": "23.754364",
				"city": "南投縣",
				"town": "信義鄉",
				"address": "信義鄉丹大事業區第16林班地"
			},
			{
				"name": "青雲",
				"altitude": "393.0",
				"longitude": "120.949378",
				"latitude": "23.793361",
				"city": "南投縣",
				"town": "信義鄉",
				"address": "信義鄉地利村5鄰開信巷98-3號旁"
			},
			{
				"name": "中心崙",
				"altitude": "677.0",
				"longitude": "120.712097",
				"latitude": "23.728722",
				"city": "南投縣",
				"town": "竹山鎮",
				"address": "竹山鎮之中心崙林道4.1km處"
			},
			{
				"name": "蘆竹湳",
				"altitude": "529.0",
				"longitude": "120.811994",
				"latitude": "23.934019",
				"city": "南投縣",
				"town": "中寮鄉",
				"address": "中寮鄉清水村龍林巷4鄰58之6號旁"
			},
			{
				"name": "樟湖",
				"altitude": "1098.0",
				"longitude": "120.846983",
				"latitude": "23.905333",
				"city": "南投縣",
				"town": "國姓鄉",
				"address": "國姓鄉147縣道9km處與站址直線距離約1.6km"
			},
			{
				"name": "九份二山",
				"altitude": "837.0",
				"longitude": "120.845000",
				"latitude": "23.961944",
				"city": "南投縣",
				"town": "國姓鄉",
				"address": "國姓鄉南港村九份二山上(921地震紀念公園內)"
			},
			{
				"name": "外大坪",
				"altitude": "725.0",
				"longitude": "120.917931",
				"latitude": "23.958697",
				"city": "南投縣",
				"town": "埔里鎮",
				"address": "埔里鎮種瓜路(投68)路口至站址車程約20分鐘"
			},
			{
				"name": "鯉潭",
				"altitude": "732.0",
				"longitude": "120.991131",
				"latitude": "23.961922",
				"city": "南投縣",
				"town": "埔里鎮",
				"address": "埔里鎮埔里高工旁中心路2km處"
			},
			{
				"name": "北坑",
				"altitude": "601.0",
				"longitude": "121.006903",
				"latitude": "23.924600",
				"city": "南投縣",
				"town": "埔里鎮",
				"address": "埔里鎮麒麟里4鄰武界路31號旁"
			},
			{
				"name": "埔中",
				"altitude": "439.0",
				"longitude": "120.642594",
				"latitude": "23.820778",
				"city": "南投縣",
				"town": "名間鄉",
				"address": "名間鄉埔中村11之3號後面"
			},
			{
				"name": "豐丘",
				"altitude": "1151.0",
				"longitude": "120.887417",
				"latitude": "23.668178",
				"city": "南投縣",
				"town": "信義鄉",
				"address": "信義鄉豐丘村豐丘產業道路末端"
			},
			{
				"name": "西巒",
				"altitude": "1033.0",
				"longitude": "120.883956",
				"latitude": "23.754486",
				"city": "南投縣",
				"town": "信義鄉",
				"address": "信義鄉台21線道之人倫林道9.5k處"
			},
			{
				"name": "奧萬大",
				"altitude": "1275.0",
				"longitude": "121.178556",
				"latitude": "23.952956",
				"city": "南投縣",
				"town": "仁愛鄉",
				"address": "仁愛鄉奧萬大森林遊樂區內(員工宿舍)"
			},
			{
				"name": "楓樹林",
				"altitude": "1266.0",
				"longitude": "121.076117",
				"latitude": "23.986803",
				"city": "南投縣",
				"town": "仁愛鄉",
				"address": "仁愛鄉埔里事業區107林班地(臺14線近埔里市區)"
			},
			{
				"name": "新興橋",
				"altitude": "897.0",
				"longitude": "120.868728",
				"latitude": "23.563333",
				"city": "南投縣",
				"town": "信義鄉",
				"address": "信義鄉臺21線新興橋附近"
			},
			{
				"name": "凌霄",
				"altitude": "1399.0",
				"longitude": "121.004456",
				"latitude": "24.018778",
				"city": "南投縣",
				"town": "仁愛鄉",
				"address": "仁愛鄉守城段4地號"
			},
			{
				"name": "翠華",
				"altitude": "2415.0",
				"longitude": "121.224339",
				"latitude": "24.191961",
				"city": "南投縣",
				"town": "仁愛鄉",
				"address": "仁愛鄉翠華村華岡段70地號內"
			},
			{
				"name": "新高口",
				"altitude": "2540.0",
				"longitude": "120.878939",
				"latitude": "23.478744",
				"city": "南投縣",
				"town": "信義鄉",
				"address": "信義鄉新高口(臺18線約107.5k處路旁，對高岳營林區第31林班446號林地內)"
			},
			{
				"name": "望鄉山",
				"altitude": "3025.0",
				"longitude": "120.944286",
				"latitude": "23.594153",
				"city": "南投縣",
				"town": "信義鄉",
				"address": "信義鄉巒大事業區第131林班內(郡大林道約32K附近，望鄉山三角點旁)"
			},
			{
				"name": "杉林溪",
				"altitude": "1680.0",
				"longitude": "120.786444",
				"latitude": "23.639517",
				"city": "南投縣",
				"town": "竹山鎮",
				"address": "竹山鎮大鞍里(杉林溪森林生態渡假園區收費亭附近，向欣谷碑旁)"
			},
			{
				"name": "大尖山",
				"altitude": "2017.0",
				"longitude": "120.994889",
				"latitude": "23.858572",
				"city": "南投縣",
				"town": "仁愛鄉",
				"address": "仁愛鄉大尖山"
			},
			{
				"name": "線浸林道",
				"altitude": "1208.0",
				"longitude": "120.832956",
				"latitude": "23.761508",
				"city": "南投縣",
				"town": "鹿谷鄉",
				"address": "鹿谷鄉線浸林道11k附近"
			},
			{
				"name": "國六W023K",
				"altitude": "373.0",
				"longitude": "120.867742",
				"latitude": "23.979067",
				"city": "南投縣",
				"town": "國道6號西向23.7k ",
				"address": "國道6號西向23.7k"
			}
		]
	},
	{
		"city": "嘉義市",
		"obversation": [
			{
				"name": "嘉義",
				"altitude": "26.9",
				"longitude": "120.432906",
				"latitude": "23.495925",
				"city": "嘉義市",
				"town": "西區",
				"address": "西區北新里海口寮路56號"
			},
			{
				"name": "嘉義市東區",
				"altitude": "40.0",
				"longitude": "120.460531",
				"latitude": "23.457673",
				"city": "嘉義市",
				"town": "親水路",
				"address": "親水路123 號(第五河川局水情中心)"
			}
		]
	},
	{
		"city": "嘉義縣",
		"obversation": [
			{
				"name": "阿里山",
				"altitude": "2413.4",
				"longitude": "120.813242",
				"latitude": "23.508208",
				"city": "嘉義縣",
				"town": "阿里山鄉",
				"address": "阿里山鄉中正村4鄰東阿里山73-1號"
			},
			{
				"name": "馬頭山",
				"altitude": "245.0",
				"longitude": "120.582017",
				"latitude": "23.324361",
				"city": "嘉義縣",
				"town": "大埔鄉",
				"address": "大埔鄉永樂村1鄰內灣仔2號"
			},
			{
				"name": "東後寮",
				"altitude": "15.0",
				"longitude": "120.248065",
				"latitude": "23.369908",
				"city": "嘉義縣",
				"town": "義竹鄉",
				"address": "義竹鄉東光村7號(台糖東後寮農場)"
			},
			{
				"name": "奮起湖",
				"altitude": "1385.0",
				"longitude": "120.699253",
				"latitude": "23.493903",
				"city": "嘉義縣",
				"town": "竹崎鄉",
				"address": "竹崎鄉阿里山事業區148林班地(中興苗圃內)"
			},
			{
				"name": "中埔",
				"altitude": "155.0",
				"longitude": "120.522900",
				"latitude": "23.425380",
				"city": "嘉義縣",
				"town": "中埔鄉",
				"address": "中埔鄉中埔村128號(中埔鄉公所)"
			},
			{
				"name": "朴子",
				"altitude": "20.0",
				"longitude": "120.239020",
				"latitude": "23.434630",
				"city": "嘉義縣",
				"town": "朴子市",
				"address": "朴子市竹村里36號(竹村國小)"
			},
			{
				"name": "溪口",
				"altitude": "40.0",
				"longitude": "120.403569",
				"latitude": "23.604131",
				"city": "嘉義縣",
				"town": "溪口鄉",
				"address": "溪口鄉中正東路103號(溪口國中學生活動中心)"
			},
			{
				"name": "大林",
				"altitude": "43.0",
				"longitude": "120.458410",
				"latitude": "23.600616",
				"city": "嘉義縣",
				"town": "大林鎮",
				"address": "大林鎮新興街110號(大林地政事務所)"
			},
			{
				"name": "太保",
				"altitude": "37.0",
				"longitude": "120.331455",
				"latitude": "23.455062",
				"city": "嘉義縣",
				"town": "太保市",
				"address": "太保市太保里31號(太保市圖書館)"
			},
			{
				"name": "水上",
				"altitude": "33.0",
				"longitude": "120.388909",
				"latitude": "23.419734",
				"city": "嘉義縣",
				"town": "水上鄉",
				"address": "水上鄉三鎮村三鎮路119號(水上消防分隊)"
			},
			{
				"name": "竹崎",
				"altitude": "150.0",
				"longitude": "120.555508",
				"latitude": "23.526178",
				"city": "嘉義縣",
				"town": "竹崎鄉",
				"address": "竹崎鄉竹崎村舊車站79號(竹崎消防分隊)"
			},
			{
				"name": "東石",
				"altitude": "15.0",
				"longitude": "120.153850",
				"latitude": "23.458927",
				"city": "嘉義縣",
				"town": "東石鄉",
				"address": "東石鄉東石村3號(東石鄉公所)"
			},
			{
				"name": "番路",
				"altitude": "225.0",
				"longitude": "120.554156",
				"latitude": "23.464657",
				"city": "嘉義縣",
				"town": "番路鄉",
				"address": "番路鄉下坑村蔡公店101號(番路鄉公所)"
			},
			{
				"name": "六腳",
				"altitude": "15.0",
				"longitude": "120.290625",
				"latitude": "23.492871",
				"city": "嘉義縣",
				"town": "六腳鄉",
				"address": "六腳鄉蒜頭村73-2號(六腳消防分隊)"
			},
			{
				"name": "布袋",
				"altitude": "10.0",
				"longitude": "120.167789",
				"latitude": "23.380878",
				"city": "嘉義縣",
				"town": "布袋鎮",
				"address": "布袋鎮龍江里2-2號(布袋消防分隊)"
			},
			{
				"name": "民雄",
				"altitude": "40.0",
				"longitude": "120.428457",
				"latitude": "23.551754",
				"city": "嘉義縣",
				"town": "民雄鄉",
				"address": "民雄鄉文化路7號(民雄鄉公所)"
			},
			{
				"name": "嘉義梅山",
				"altitude": "164.0",
				"longitude": "120.555587",
				"latitude": "23.585398",
				"city": "嘉義縣",
				"town": "梅山鄉",
				"address": "梅山鄉中山路282號(梅山鄉公所)"
			},
			{
				"name": "鹿草",
				"altitude": "30.0",
				"longitude": "120.308350",
				"latitude": "23.411340",
				"city": "嘉義縣",
				"town": "鹿草鄉",
				"address": "鹿草鄉西井村287號(鹿草鄉公所)"
			},
			{
				"name": "新港",
				"altitude": "15.0",
				"longitude": "120.345728",
				"latitude": "23.553269",
				"city": "嘉義縣",
				"town": "新港鄉",
				"address": "新港鄉公園路28號(新港消防分隊)"
			},
			{
				"name": "茶山",
				"altitude": "440.0",
				"longitude": "120.664767",
				"latitude": "23.299075",
				"city": "嘉義縣",
				"town": "阿里山",
				"address": "阿里山鄉茶山路62號之1(茶山村衛生室)"
			},
			{
				"name": "里佳",
				"altitude": "1354.0",
				"longitude": "120.716647",
				"latitude": "23.389125",
				"city": "嘉義縣",
				"town": "阿里山",
				"address": "阿里山鄉里佳村"
			},
			{
				"name": "達邦",
				"altitude": "980.0",
				"longitude": "120.749517",
				"latitude": "23.453994",
				"city": "嘉義縣",
				"town": "阿里山",
				"address": "阿里山鄉達邦村21號(鄒族自然與文化中心)"
			},
			{
				"name": "表湖",
				"altitude": "695.0",
				"longitude": "120.641660",
				"latitude": "23.241860",
				"city": "嘉義縣",
				"town": "大埔鄉",
				"address": "大埔鄉溪頭段1地號"
			},
			{
				"name": "新美",
				"altitude": "578.0",
				"longitude": "120.683169",
				"latitude": "23.338017",
				"city": "嘉義縣",
				"town": "嘉義縣",
				"address": "嘉義縣阿里山鄉新美村78號"
			},
			{
				"name": "龍美",
				"altitude": "1090.0",
				"longitude": "120.654417",
				"latitude": "23.406728",
				"city": "嘉義縣",
				"town": "番路鄉",
				"address": "番路鄉公興村隆美地區(舊地名為瀨頭)私人茶園內"
			},
			{
				"name": "菜瓜坪",
				"altitude": "369.0",
				"longitude": "120.576103",
				"latitude": "23.251928",
				"city": "嘉義縣",
				"town": "大埔鄉",
				"address": "大埔鄉西興村"
			},
			{
				"name": "獨立山",
				"altitude": "840.0",
				"longitude": "120.607797",
				"latitude": "23.537022",
				"city": "嘉義縣",
				"town": "竹崎鄉",
				"address": "竹崎鄉(獨立山三角點旁)"
			},
			{
				"name": "頭凍",
				"altitude": "986.0",
				"longitude": "120.603339",
				"latitude": "23.406364",
				"city": "嘉義縣",
				"town": "番路鄉",
				"address": "番路鄉阿里山公路23k處轉入興社產業道路盡頭"
			},
			{
				"name": "石磐龍",
				"altitude": "1083.0",
				"longitude": "120.663506",
				"latitude": "23.496606",
				"city": "嘉義縣",
				"town": "竹崎鄉",
				"address": "竹崎鄉光華村"
			},
			{
				"name": "瑞里",
				"altitude": "1252.0",
				"longitude": "120.675197",
				"latitude": "23.545133",
				"city": "嘉義縣",
				"town": "梅山鄉",
				"address": "梅山鄉瑞里派出所旁小路至站址(公墓旁)車程約10分鐘"
			},
			{
				"name": "十字",
				"altitude": "1567.0",
				"longitude": "120.753683",
				"latitude": "23.492153",
				"city": "嘉義縣",
				"town": "阿里山",
				"address": "阿里山鄉十字村16號（十字國小樓頂）"
			},
			{
				"name": "國三N285K",
				"altitude": "121.0",
				"longitude": "120.505833",
				"latitude": "23.550319",
				"city": "嘉義縣",
				"town": "國道3號北向285K ",
				"address": "國道3號北向285K"
			}
		]
	},
	{
		"city": "雲林縣",
		"obversation": [
			{
				"name": "草嶺",
				"altitude": "1132.0",
				"longitude": "120.693461",
				"latitude": "23.595550",
				"city": "雲林縣",
				"town": "古坑鄉",
				"address": "古坑鄉草嶺村龍頭"
			},
			{
				"name": "崙背",
				"altitude": "12.0",
				"longitude": "120.318925",
				"latitude": "23.755550",
				"city": "雲林縣",
				"town": "崙背鄉",
				"address": "崙背鄉阿勸村阿勸農場(阿勸段487號)"
			},
			{
				"name": "四湖",
				"altitude": "23.0",
				"longitude": "120.227125",
				"latitude": "23.630414",
				"city": "雲林縣",
				"town": "四湖鄉",
				"address": "四湖鄉湖西村中正路766號(四湖國民中學內)"
			},
			{
				"name": "宜梧",
				"altitude": "8.0",
				"longitude": "120.169329",
				"latitude": "23.536281",
				"city": "雲林縣",
				"town": "口湖鄉",
				"address": "口湖鄉湖口村170號央廣口湖分台內(憲兵排樓頂)"
			},
			{
				"name": "虎尾",
				"altitude": "38.0",
				"longitude": "120.442036",
				"latitude": "23.719183",
				"city": "雲林縣",
				"town": "虎尾鎮",
				"address": "虎尾鎮林森路一段64號(中正國民小學內)"
			},
			{
				"name": "土庫",
				"altitude": "31.0",
				"longitude": "120.395574",
				"latitude": "23.679029",
				"city": "雲林縣",
				"town": "土庫鎮",
				"address": "土庫鎮建國路41號(土庫消防分隊)"
			},
			{
				"name": "斗六",
				"altitude": "65.0",
				"longitude": "120.541127",
				"latitude": "23.720583",
				"city": "雲林縣",
				"town": "斗六市",
				"address": "斗六市鎮北路345-1號(斗六消防分隊)"
			},
			{
				"name": "北港",
				"altitude": "20.0",
				"longitude": "120.292802",
				"latitude": "23.573957",
				"city": "雲林縣",
				"town": "北港鎮",
				"address": "北港鎮大同路565號(北港消防分隊)"
			},
			{
				"name": "西螺",
				"altitude": "42.0",
				"longitude": "120.467394",
				"latitude": "23.800407",
				"city": "雲林縣",
				"town": "西螺鎮",
				"address": "西螺鎮公正路211號(西螺消防分隊)"
			},
			{
				"name": "褒忠",
				"altitude": "30.0",
				"longitude": "120.303634",
				"latitude": "23.690938",
				"city": "雲林縣",
				"town": "褒忠鄉",
				"address": "褒忠鄉中正路451號(褒忠鄉公所)"
			},
			{
				"name": "二崙",
				"altitude": "35.0",
				"longitude": "120.408944",
				"latitude": "23.772797",
				"city": "雲林縣",
				"town": "二崙鄉",
				"address": "二崙鄉中正路80號(二崙消防分隊)"
			},
			{
				"name": "大埤",
				"altitude": "35.0",
				"longitude": "120.431537",
				"latitude": "23.646074",
				"city": "雲林縣",
				"town": "大埤鄉",
				"address": "大埤鄉中山路8號(大埤鄉公所)"
			},
			{
				"name": "斗南",
				"altitude": "60.0",
				"longitude": "120.478359",
				"latitude": "23.678734",
				"city": "雲林縣",
				"town": "斗南鎮",
				"address": "斗南鎮延平路二段266號(斗南鎮停一立體停車場)"
			},
			{
				"name": "林內",
				"altitude": "97.0",
				"longitude": "120.609642",
				"latitude": "23.748675",
				"city": "雲林縣",
				"town": "林內鄉",
				"address": "林內鄉中正路685號(林內消防分隊)"
			},
			{
				"name": "莿桐",
				"altitude": "56.0",
				"longitude": "120.502372",
				"latitude": "23.761192",
				"city": "雲林縣",
				"town": "莿桐鄉",
				"address": "莿桐鄉和平路53號(莿桐鄉公所)"
			},
			{
				"name": "古坑",
				"altitude": "91.0",
				"longitude": "120.559754",
				"latitude": "23.654301",
				"city": "雲林縣",
				"town": "古坑鄉",
				"address": "古坑鄉中山路393號(古坑消防分隊)"
			},
			{
				"name": "元長",
				"altitude": "12.0",
				"longitude": "120.315024",
				"latitude": "23.649810",
				"city": "雲林縣",
				"town": "元長鄉",
				"address": "元長鄉長南村仁愛街2號(元長鄉公所)"
			},
			{
				"name": "水林",
				"altitude": "10.0",
				"longitude": "120.245970",
				"latitude": "23.572924",
				"city": "雲林縣",
				"town": "水林鄉",
				"address": "水林鄉水北村水林路12號(水林鄉公所)"
			},
			{
				"name": "雲林東勢",
				"altitude": "10.0",
				"longitude": "120.154778",
				"latitude": "23.674449",
				"city": "雲林縣",
				"town": "東勢鄉",
				"address": "東勢鄉東南村所前街3號(東勢鄉公所)"
			},
			{
				"name": "臺西",
				"altitude": "12.0",
				"longitude": "120.197559",
				"latitude": "23.701547",
				"city": "雲林縣",
				"town": "台西鄉",
				"address": "台西鄉中山路110巷38號(臺西消防分隊)"
			},
			{
				"name": "蔦松",
				"altitude": "15.0",
				"longitude": "120.229736",
				"latitude": "23.514319",
				"city": "雲林縣",
				"town": "水林鄉",
				"address": "水林鄉松中村蔦松路213號(蔦松國小)"
			},
			{
				"name": "棋山",
				"altitude": "117.0",
				"longitude": "120.603417",
				"latitude": "23.686450",
				"city": "雲林縣",
				"town": "古坑鄉",
				"address": "古坑鄉棋盤村棋山49號(棋山國小)"
			},
			{
				"name": "高鐵雲林",
				"altitude": "26.0",
				"longitude": "120.417944",
				"latitude": "23.737456",
				"city": "雲林縣",
				"town": "虎尾鎮",
				"address": "虎尾鎮站前東路301號(高鐵雲林站外)"
			},
			{
				"name": "口湖",
				"altitude": "15.0",
				"longitude": "120.180517",
				"latitude": "23.585344",
				"city": "雲林縣",
				"town": "口湖鄉",
				"address": "口湖鄉口湖村中正路一段280號(口湖消防分隊)"
			}
		]
	},
	{
		"city": "臺南市",
		"obversation": [
			{
				"name": "臺南",
				"altitude": "40.8",
				"longitude": "120.204772",
				"latitude": "22.993239",
				"city": "臺南市",
				"town": "中西區",
				"address": "中西區公園路21號"
			},
			{
				"name": "永康",
				"altitude": "8.1",
				"longitude": "120.236700",
				"latitude": "23.038386",
				"city": "臺南市",
				"town": "永康區",
				"address": "永康區鹽行里正南五街520巷88號"
			},
			{
				"name": "曾文",
				"altitude": "161.0",
				"longitude": "120.497328",
				"latitude": "23.219681",
				"city": "臺南市",
				"town": "楠西區",
				"address": "楠西區曾文新村(曾文水庫管理局內)"
			},
			{
				"name": "北寮",
				"altitude": "127.0",
				"longitude": "120.495008",
				"latitude": "23.079561",
				"city": "臺南市",
				"town": "南化區",
				"address": "南化區北寮里48-4號"
			},
			{
				"name": "王爺宮",
				"altitude": "134.0",
				"longitude": "120.400850",
				"latitude": "23.222064",
				"city": "臺南市",
				"town": "六甲區",
				"address": "六甲區王爺里24號（六甲國小湖東分校）"
			},
			{
				"name": "大內",
				"altitude": "38.0",
				"longitude": "120.360830",
				"latitude": "23.118850",
				"city": "臺南市",
				"town": "大內區",
				"address": "大內區74201大內里63號(大內國民小學)"
			},
			{
				"name": "善化",
				"altitude": "9.0",
				"longitude": "120.297219",
				"latitude": "23.112883",
				"city": "臺南市",
				"town": "善化區",
				"address": "善化區益民寮60號(亞洲蔬菜研究發展中心內)"
			},
			{
				"name": "玉井",
				"altitude": "69.0",
				"longitude": "120.460550",
				"latitude": "23.126042",
				"city": "臺南市",
				"town": "玉井區",
				"address": "玉井區台灣糖業公司玉井糖廠"
			},
			{
				"name": "安南",
				"altitude": "4.0",
				"longitude": "120.144861",
				"latitude": "23.076694",
				"city": "臺南市",
				"town": "安南區",
				"address": "安南區公學路6段589號(學東國民小學內)"
			},
			{
				"name": "崎頂",
				"altitude": "112.0",
				"longitude": "120.369317",
				"latitude": "22.959547",
				"city": "臺南市",
				"town": "龍崎區",
				"address": "龍崎區中坑里5鄰13號"
			},
			{
				"name": "虎頭埤",
				"altitude": "71.0",
				"longitude": "120.347878",
				"latitude": "23.021375",
				"city": "臺南市",
				"town": "新化區",
				"address": "新化區口埤18號(新化分場)"
			},
			{
				"name": "新市",
				"altitude": "18.0",
				"longitude": "120.298197",
				"latitude": "23.061614",
				"city": "臺南市",
				"town": "新市區",
				"address": "新市區永就里53號(番子寮農場)"
			},
			{
				"name": "媽廟",
				"altitude": "18.0",
				"longitude": "120.293525",
				"latitude": "22.991750",
				"city": "臺南市",
				"town": "歸仁區",
				"address": "歸仁區中正北路3段60號(保西國民小學內)"
			},
			{
				"name": "東河",
				"altitude": "25.0",
				"longitude": "120.385608",
				"latitude": "23.296598",
				"city": "臺南市",
				"town": "東山區",
				"address": "東山區東河里54號(東河水利工作站)"
			},
			{
				"name": "下營",
				"altitude": "19.0",
				"longitude": "120.256261",
				"latitude": "23.226950",
				"city": "臺南市",
				"town": "下營區",
				"address": "下營區仁里里下營國小附近"
			},
			{
				"name": "佳里",
				"altitude": "2.0",
				"longitude": "120.145086",
				"latitude": "23.173039",
				"city": "臺南市",
				"town": "佳里區",
				"address": "佳里區西方之埔尾，近七股區之篤加"
			},
			{
				"name": "臺南市北區",
				"altitude": "10.0",
				"longitude": "120.194228",
				"latitude": "23.010394",
				"city": "臺南市",
				"town": "北區",
				"address": "北區文賢路678號(和緯消防分隊)"
			},
			{
				"name": "臺南市南區",
				"altitude": "20.0",
				"longitude": "120.188378",
				"latitude": "22.961189",
				"city": "臺南市",
				"town": "南區",
				"address": "南區明興路2號(南區區公所)"
			},
			{
				"name": "麻豆",
				"altitude": "28.0",
				"longitude": "120.248611",
				"latitude": "23.183289",
				"city": "臺南市",
				"town": "麻豆區",
				"address": "麻豆區興國路9號(麻豆消防分隊5樓頂)"
			},
			{
				"name": "官田",
				"altitude": "27.0",
				"longitude": "120.315422",
				"latitude": "23.193217",
				"city": "臺南市",
				"town": "官田區",
				"address": "官田區中山路一段132號(官田區公所)"
			},
			{
				"name": "西港",
				"altitude": "17.0",
				"longitude": "120.203108",
				"latitude": "23.125608",
				"city": "臺南市",
				"town": "西港區",
				"address": "西港區中山路450號(西港消防分隊4樓頂)"
			},
			{
				"name": "安定",
				"altitude": "18.0",
				"longitude": "120.227839",
				"latitude": "23.102614",
				"city": "臺南市",
				"town": "安定區",
				"address": "安定區南安里33-11號"
			},
			{
				"name": "仁德",
				"altitude": "26.0",
				"longitude": "120.257689",
				"latitude": "22.968258",
				"city": "臺南市",
				"town": "仁德區",
				"address": "仁德區仁義路432號(仁德消防分隊)"
			},
			{
				"name": "關廟",
				"altitude": "50.0",
				"longitude": "120.327797",
				"latitude": "22.963017",
				"city": "臺南市",
				"town": "關廟區",
				"address": "關廟區中正路998號(關廟區公所3樓頂)"
			},
			{
				"name": "山上",
				"altitude": "62.0",
				"longitude": "120.363253",
				"latitude": "23.075700",
				"city": "臺南市",
				"town": "山上區",
				"address": "山上區豐德里隙子口5之1號(中油豐德供油中心2樓頂)"
			},
			{
				"name": "安平",
				"altitude": "10.0",
				"longitude": "120.152181",
				"latitude": "22.993161",
				"city": "臺南市",
				"town": "安平區",
				"address": "安平區城平路2號(台江國家公園管理處)"
			},
			{
				"name": "左鎮",
				"altitude": "61.0",
				"longitude": "120.408522",
				"latitude": "23.056758",
				"city": "臺南市",
				"town": "左鎮區",
				"address": "左鎮區中正里171號之4(左鎮區公所)"
			},
			{
				"name": "白河",
				"altitude": "38.0",
				"longitude": "120.414427",
				"latitude": "23.347466",
				"city": "臺南市",
				"town": "白河區",
				"address": "白河區中山路6號(白河消防分隊)"
			},
			{
				"name": "學甲",
				"altitude": "26.0",
				"longitude": "120.182187",
				"latitude": "23.230367",
				"city": "臺南市",
				"town": "學甲區",
				"address": "學甲區華宗路313號(學甲區公所)"
			},
			{
				"name": "鹽水",
				"altitude": "29.0",
				"longitude": "120.247641",
				"latitude": "23.272621",
				"city": "臺南市",
				"town": "鹽水區",
				"address": "鹽水區竹埔里1號(竹埔派出所)"
			},
			{
				"name": "關子嶺",
				"altitude": "394.0",
				"longitude": "120.508025",
				"latitude": "23.331169",
				"city": "臺南市",
				"town": "白河區",
				"address": "白河區關嶺里94-3號(仙草國小關嶺分校)"
			},
			{
				"name": "新營",
				"altitude": "33.0",
				"longitude": "120.316698",
				"latitude": "23.310712",
				"city": "臺南市",
				"town": "新營區",
				"address": "新營區中正路30號(南瀛親子館)"
			},
			{
				"name": "後壁",
				"altitude": "39.0",
				"longitude": "120.362326",
				"latitude": "23.366358",
				"city": "臺南市",
				"town": "後壁區",
				"address": "後壁區後壁里129號(後壁圖書館)"
			},
			{
				"name": "將軍",
				"altitude": "22.0",
				"longitude": "120.135770",
				"latitude": "23.214999",
				"city": "臺南市",
				"town": "將軍區",
				"address": "將軍區將貴里58號(將軍國小)"
			},
			{
				"name": "北門",
				"altitude": "10.0",
				"longitude": "120.125481",
				"latitude": "23.267772",
				"city": "臺南市",
				"town": "北門區",
				"address": "北門區北門里舊埕108號(北門區公所)"
			},
			{
				"name": "鹿寮",
				"altitude": "70.0",
				"longitude": "120.477331",
				"latitude": "23.386047",
				"city": "臺南市",
				"town": "白河區",
				"address": "白河區崎內里12號(鹿寮水庫)"
			},
			{
				"name": "七股",
				"altitude": "9.0",
				"longitude": "120.086253",
				"latitude": "23.147289",
				"city": "臺南市",
				"town": "七股區",
				"address": "七股區鹽埕237-11號(氣象局七股雷達站區內)"
			},
			{
				"name": "柳營",
				"altitude": "30.0",
				"longitude": "120.375253",
				"latitude": "23.253328",
				"city": "臺南市",
				"town": "臺南市",
				"address": "臺南市柳營區國道3號北上324.7K處"
			},
			{
				"name": "沙崙",
				"altitude": "24.0",
				"longitude": "120.309406",
				"latitude": "22.935472",
				"city": "臺南市",
				"town": "歸仁區",
				"address": "歸仁區沙崙里184號北沙崙農場"
			},
			{
				"name": "環湖",
				"altitude": "44.0",
				"longitude": "120.418633",
				"latitude": "23.148617",
				"city": "臺南市",
				"town": "大內區",
				"address": "大內區頭社里10號(大內國小鳴頭分校內)"
			},
			{
				"name": "大棟山",
				"altitude": "1249.0",
				"longitude": "120.522260",
				"latitude": "23.311570",
				"city": "臺南市",
				"town": "白河區",
				"address": "白河區大棟山三角點"
			},
			{
				"name": "關山",
				"altitude": "223.0",
				"longitude": "120.594092",
				"latitude": "23.173397",
				"city": "臺南市",
				"town": "南化區",
				"address": "南化區關山里西阿里山關83號(瑞峰國小附近)"
			},
			{
				"name": "楠西",
				"altitude": "115.0",
				"longitude": "120.484083",
				"latitude": "23.183511",
				"city": "臺南市",
				"town": "楠西區",
				"address": "楠西區中興路107號(楠西國民中學內)"
			},
			{
				"name": "東原",
				"altitude": "232.0",
				"longitude": "120.463822",
				"latitude": "23.291597",
				"city": "臺南市",
				"town": "東山區",
				"address": "東山區高原里4鄰31號後方果園"
			}
		]
	},
	{
		"city": "高雄市",
		"obversation": [
			{
				"name": "高雄",
				"altitude": "2.3",
				"longitude": "120.315733",
				"latitude": "22.565992",
				"city": "高雄市",
				"town": "前鎮區",
				"address": "前鎮區明孝里26鄰漁港南二路2號"
			},
			{
				"name": "復興",
				"altitude": "734.0",
				"longitude": "120.806089",
				"latitude": "23.222403",
				"city": "高雄市",
				"town": "桃源區",
				"address": "桃源區復興里復興巷1鄰15號"
			},
			{
				"name": "甲仙",
				"altitude": "298.0",
				"longitude": "120.591758",
				"latitude": "23.080106",
				"city": "高雄市",
				"town": "甲仙區",
				"address": "甲仙區(甲仙國民中學操場後方小山丘上)"
			},
			{
				"name": "月眉",
				"altitude": "126.0",
				"longitude": "120.539853",
				"latitude": "22.971003",
				"city": "高雄市",
				"town": "杉林區",
				"address": "杉林區月眉里山仙路1號月眉農場"
			},
			{
				"name": "美濃",
				"altitude": "46.0",
				"longitude": "120.519153",
				"latitude": "22.898742",
				"city": "高雄市",
				"town": "美濃區",
				"address": "美濃區福安里中山路二段204巷65號(美濃區福安國小後方)"
			},
			{
				"name": "溪埔",
				"altitude": "36.0",
				"longitude": "120.446797",
				"latitude": "22.738578",
				"city": "高雄市",
				"town": "大樹區",
				"address": "大樹區溪埔里之台29線近83K處"
			},
			{
				"name": "內門",
				"altitude": "94.0",
				"longitude": "120.466769",
				"latitude": "22.975481",
				"city": "高雄市",
				"town": "內門區",
				"address": "內門區木柵里木柵3號（木柵國民小學）"
			},
			{
				"name": "古亭坑",
				"altitude": "74.0",
				"longitude": "120.401947",
				"latitude": "22.893178",
				"city": "高雄市",
				"town": "田寮區",
				"address": "田寮區古亭里"
			},
			{
				"name": "阿公店",
				"altitude": "56.0",
				"longitude": "120.355528",
				"latitude": "22.804194",
				"city": "高雄市",
				"town": "燕巢區",
				"address": "燕巢區西燕里工程路1號（阿公店水庫內）"
			},
			{
				"name": "鳳山",
				"altitude": "27.0",
				"longitude": "120.356122",
				"latitude": "22.646653",
				"city": "高雄市",
				"town": "鳳山區",
				"address": "鳳山區文山路園藝巷4號（鳳山熱帶園藝試驗分所）"
			},
			{
				"name": "鳳森",
				"altitude": "51.0",
				"longitude": "120.392592",
				"latitude": "22.545064",
				"city": "高雄市",
				"town": "小港區",
				"address": "小港區水庫段96-1地號（鳳山給水廠內）"
			},
			{
				"name": "新興",
				"altitude": "20.0",
				"longitude": "120.298803",
				"latitude": "22.627422",
				"city": "高雄市",
				"town": "新興區",
				"address": "新興區大同一路231號(大同國小內5樓頂)"
			},
			{
				"name": "旗津",
				"altitude": "6.0",
				"longitude": "120.285944",
				"latitude": "22.588600",
				"city": "高雄市",
				"town": "旗津區",
				"address": "旗津區中洲二路207號(旗津國中校園內)"
			},
			{
				"name": "阿蓮",
				"altitude": "34.0",
				"longitude": "120.327508",
				"latitude": "22.883208",
				"city": "高雄市",
				"town": "阿蓮區",
				"address": "阿蓮區公所樓頂"
			},
			{
				"name": "梓官",
				"altitude": "22.0",
				"longitude": "120.267211",
				"latitude": "22.760558",
				"city": "高雄市",
				"town": "梓官區",
				"address": "梓官區梓官路258號(梓官區公所)"
			},
			{
				"name": "永安",
				"altitude": "18.0",
				"longitude": "120.236856",
				"latitude": "22.823150",
				"city": "高雄市",
				"town": "永安區",
				"address": "永安區永安路32號(永安消防分隊)"
			},
			{
				"name": "茄萣",
				"altitude": "19.0",
				"longitude": "120.182608",
				"latitude": "22.906642",
				"city": "高雄市",
				"town": "茄萣區",
				"address": "茄萣區濱海路四段27號(茄萣區公所)"
			},
			{
				"name": "湖內",
				"altitude": "35.0",
				"longitude": "120.244500",
				"latitude": "22.887139",
				"city": "高雄市",
				"town": "湖內區",
				"address": "湖內區中山路一段290之1號(湖街派出所)"
			},
			{
				"name": "彌陀",
				"altitude": "28.0",
				"longitude": "120.246361",
				"latitude": "22.783806",
				"city": "高雄市",
				"town": "彌陀區",
				"address": "彌陀區中正北路7號(彌陀消防分隊)"
			},
			{
				"name": "岡山",
				"altitude": "25.0",
				"longitude": "120.294958",
				"latitude": "22.797078",
				"city": "高雄市",
				"town": "岡山區",
				"address": "岡山區岡山路341號(岡山地政事務所)"
			},
			{
				"name": "楠梓",
				"altitude": "20.0",
				"longitude": "120.286000",
				"latitude": "22.719750",
				"city": "高雄市",
				"town": "楠梓區",
				"address": "楠梓區德民路1010號(國昌國民中學)"
			},
			{
				"name": "仁武",
				"altitude": "40.0",
				"longitude": "120.347722",
				"latitude": "22.701083",
				"city": "高雄市",
				"town": "仁武區",
				"address": "仁武區中正路133號(仁武區公所)"
			},
			{
				"name": "鼓山",
				"altitude": "30.0",
				"longitude": "120.275575",
				"latitude": "22.623325",
				"city": "高雄市",
				"town": "鼓山區",
				"address": "鼓山區臨海一路61-1號(鼓山消防分隊)"
			},
			{
				"name": "三民",
				"altitude": "24.0",
				"longitude": "120.311233",
				"latitude": "22.645017",
				"city": "高雄市",
				"town": "三民區",
				"address": "三民區十全一路88號(十全消防分隊)"
			},
			{
				"name": "苓雅",
				"altitude": "34.0",
				"longitude": "120.330669",
				"latitude": "22.622742",
				"city": "高雄市",
				"town": "苓雅區",
				"address": "苓雅區三多一路162號(苓雅消防分隊)"
			},
			{
				"name": "林園",
				"altitude": "15.0",
				"longitude": "120.394511",
				"latitude": "22.507747",
				"city": "高雄市",
				"town": "林園區",
				"address": "林園區林園北路179號(林園區公所)"
			},
			{
				"name": "大寮",
				"altitude": "33.0",
				"longitude": "120.395717",
				"latitude": "22.605614",
				"city": "高雄市",
				"town": "大寮區",
				"address": "大寮區鳳林三路492號(大寮區公所)"
			},
			{
				"name": "旗山",
				"altitude": "60.0",
				"longitude": "120.483597",
				"latitude": "22.888614",
				"city": "高雄市",
				"town": "旗山區",
				"address": "旗山區延平一路499號(旗山區公所)"
			},
			{
				"name": "路竹",
				"altitude": "50.0",
				"longitude": "120.259439",
				"latitude": "22.854997",
				"city": "高雄市",
				"town": "路竹區",
				"address": "路竹區國昌路76號(路竹區公所)"
			},
			{
				"name": "橋頭",
				"altitude": "30.0",
				"longitude": "120.305750",
				"latitude": "22.757806",
				"city": "高雄市",
				"town": "橋頭區",
				"address": "橋頭區隆豐路1號(橋頭區公所)"
			},
			{
				"name": "大社",
				"altitude": "26.0",
				"longitude": "120.346639",
				"latitude": "22.730306",
				"city": "高雄市",
				"town": "大社區",
				"address": "大社區自強街1號(大社區公所)"
			},
			{
				"name": "萬山",
				"altitude": "410.0",
				"longitude": "120.688056",
				"latitude": "22.905944",
				"city": "高雄市",
				"town": "茂林區",
				"address": "茂林區萬山段710地號"
			},
			{
				"name": "六龜",
				"altitude": "256.0",
				"longitude": "120.633583",
				"latitude": "22.997889",
				"city": "高雄市",
				"town": "六龜區",
				"address": "六龜區民治路9號(六龜消防隊)"
			},
			{
				"name": "左營",
				"altitude": "32.0",
				"longitude": "120.284910",
				"latitude": "22.674910",
				"city": "高雄市",
				"town": "左營區",
				"address": "左營區左營大路1號(高雄市立海青高級工商職業學校資訊大樓樓頂)"
			},
			{
				"name": "小林",
				"altitude": "441.0",
				"longitude": "120.633250",
				"latitude": "23.148408",
				"city": "高雄市",
				"town": "甲仙區",
				"address": "甲仙區五里路24-2號（小林國小）"
			},
			{
				"name": "達卡努瓦",
				"altitude": "1040.0",
				"longitude": "120.705319",
				"latitude": "23.279811",
				"city": "高雄市",
				"town": "那瑪夏",
				"address": "那瑪夏區達卡努瓦里"
			},
			{
				"name": "排雲",
				"altitude": "3690.0",
				"longitude": "120.954147",
				"latitude": "23.463619",
				"city": "高雄市",
				"town": "桃源區",
				"address": "桃源區排雲山莊往南峰方向步行約6小時(登山口-8.5k排雲山莊-1.5k測站)"
			},
			{
				"name": "南天池",
				"altitude": "2700.0",
				"longitude": "120.911760",
				"latitude": "23.274030",
				"city": "高雄市",
				"town": "桃源區",
				"address": "桃源區長春祠旁之步道步行約50分鐘"
			},
			{
				"name": "梅山",
				"altitude": "870.0",
				"longitude": "120.823556",
				"latitude": "23.268447",
				"city": "高雄市",
				"town": "桃源區",
				"address": "桃源區梅山里(梅山口遊客中心旁道路步行約10分鐘)"
			},
			{
				"name": "小關山",
				"altitude": "1781.0",
				"longitude": "120.813603",
				"latitude": "23.154217",
				"city": "高雄市",
				"town": "桃源區",
				"address": "桃源區老濃溪事業區99林班地"
			},
			{
				"name": "高中",
				"altitude": "731.0",
				"longitude": "120.716711",
				"latitude": "23.134911",
				"city": "高雄市",
				"town": "桃源區",
				"address": "桃源區高中"
			},
			{
				"name": "御油山",
				"altitude": "1637.0",
				"longitude": "120.715364",
				"latitude": "23.001983",
				"city": "高雄市",
				"town": "桃源區",
				"address": "桃源區農業委員會林業試驗所六龜分所鳳崗山苗圃觀測坪內"
			},
			{
				"name": "大津",
				"altitude": "190.0",
				"longitude": "120.645986",
				"latitude": "22.888322",
				"city": "高雄市",
				"town": "六龜區",
				"address": "六龜區大津里34號(龍興國小大津分校)"
			},
			{
				"name": "尖山",
				"altitude": "60.0",
				"longitude": "120.367789",
				"latitude": "22.813153",
				"city": "高雄市",
				"town": "燕巢區",
				"address": "燕巢區尖山里尖山巷11之1號(燕巢國小尖山分校)"
			},
			{
				"name": "吉東",
				"altitude": "82.0",
				"longitude": "120.545400",
				"latitude": "22.854220",
				"city": "高雄市",
				"town": "美濃區",
				"address": "美濃區吉東里吉頂路19號(吉東國小)"
			},
			{
				"name": "溪南(特生中心)",
				"altitude": "1656.0",
				"longitude": "120.788475",
				"latitude": "23.084972",
				"city": "高雄市",
				"town": "桃源區",
				"address": "桃源區石山林道7k(特有生物研究保育中心中海拔試驗站)"
			},
			{
				"name": "新發",
				"altitude": "741.0",
				"longitude": "120.646064",
				"latitude": "23.057019",
				"city": "高雄市",
				"town": "六龜區",
				"address": "六龜區旗山事業區61林班地"
			},
			{
				"name": "藤枝",
				"altitude": "1561.0",
				"longitude": "120.757042",
				"latitude": "23.071961",
				"city": "高雄市",
				"town": "桃源區",
				"address": "桃源區藤枝森林遊樂區遊客中心"
			},
			{
				"name": "多納林道",
				"altitude": "1050.0",
				"longitude": "120.737917",
				"latitude": "22.888028",
				"city": "高雄市",
				"town": "茂林區",
				"address": "茂林區多納林道9k(林試所六龜研究中心多納苗圃)"
			},
			{
				"name": "國三S383K",
				"altitude": "114.0",
				"longitude": "120.426475",
				"latitude": "22.781967",
				"city": "高雄市",
				"town": "國道3號南向383.3k ",
				"address": "國道3號南向383.3k"
			}
		]
	},
	{
		"city": "澎湖縣",
		"obversation": [
			{
				"name": "東吉島",
				"altitude": "43.0",
				"longitude": "119.667467",
				"latitude": "23.256950",
				"city": "澎湖縣",
				"town": "望安鄉",
				"address": "望安鄉東吉村156號"
			},
			{
				"name": "澎湖",
				"altitude": "10.7",
				"longitude": "119.563094",
				"latitude": "23.565503",
				"city": "澎湖縣",
				"town": "馬公市",
				"address": "馬公市新興路2號"
			},
			{
				"name": "西嶼",
				"altitude": "58.0",
				"longitude": "119.468436",
				"latitude": "23.562600",
				"city": "澎湖縣",
				"town": "西嶼鄉",
				"address": "西嶼鄉195號(西嶼燈塔西方)"
			},
			{
				"name": "花嶼",
				"altitude": "18.0",
				"longitude": "119.322760",
				"latitude": "23.400070",
				"city": "澎湖縣",
				"town": "望安鄉",
				"address": "望安鄉花嶼村2號(花嶼國民小學)"
			}
		]
	},
	{
		"city": "金門縣",
		"obversation": [
			{
				"name": "金門",
				"altitude": "47.9",
				"longitude": "118.289281",
				"latitude": "24.407306",
				"city": "金門縣",
				"town": "金城鎮",
				"address": "金城鎮金水里西海路一段250號"
			},
			{
				"name": "金沙",
				"altitude": "21.0",
				"longitude": "118.408778",
				"latitude": "24.488292",
				"city": "金門縣",
				"town": "金沙鎮",
				"address": "金沙鎮環島北路四段465號(金門縣自來水廠榮湖淨水場)"
			},
			{
				"name": "金寧",
				"altitude": "42.0",
				"longitude": "118.328989",
				"latitude": "24.457703",
				"city": "金門縣",
				"town": "金寧鄉",
				"address": "金寧鄉頂林路315號(金門縣消防局)"
			},
			{
				"name": "烏坵",
				"altitude": "49.0",
				"longitude": "119.449560",
				"latitude": "24.994400",
				"city": "金門縣",
				"town": "烏坵鄉",
				"address": "烏坵鄉"
			}
		]
	},
	{
		"city": "屏東縣",
		"obversation": [
			{
				"name": "恆春",
				"altitude": "22.3",
				"longitude": "120.746339",
				"latitude": "22.003897",
				"city": "屏東縣",
				"town": "恆春鎮",
				"address": "恆春鎮天文路50號"
			},
			{
				"name": "尾寮山",
				"altitude": "1006.0",
				"longitude": "120.683889",
				"latitude": "22.833111",
				"city": "屏東縣",
				"town": "三地門",
				"address": "三地門鄉口社檢查站車程約2小時(尾寮山瞭望台旁)"
			},
			{
				"name": "阿禮",
				"altitude": "1040.0",
				"longitude": "120.743678",
				"latitude": "22.742908",
				"city": "屏東縣",
				"town": "霧台鄉",
				"address": "霧台鄉(屏東事業區第46林班)由山地文化村開車約2小時需徒步轉波站前面"
			},
			{
				"name": "瑪家",
				"altitude": "740.0",
				"longitude": "120.686639",
				"latitude": "22.682903",
				"city": "屏東縣",
				"town": "瑪家鄉",
				"address": "瑪家鄉瑪家村4鄰24號(後山)"
			},
			{
				"name": "三地門",
				"altitude": "105.0",
				"longitude": "120.639944",
				"latitude": "22.709889",
				"city": "屏東縣",
				"town": "內埔鄉",
				"address": "內埔鄉水門村成功路83號(國立內埔高級農工職業學校內)"
			},
			{
				"name": "鹽埔",
				"altitude": "45.0",
				"longitude": "120.530778",
				"latitude": "22.739558",
				"city": "屏東縣",
				"town": "屏東縣",
				"address": "屏東縣鹽埔鄉七份路21號(彭厝國小)"
			},
			{
				"name": "屏東",
				"altitude": "26.0",
				"longitude": "120.494072",
				"latitude": "22.660269",
				"city": "屏東縣",
				"town": "屏東市",
				"address": "屏東市復興路245號(台灣糖業公司屏東區處場區內)"
			},
			{
				"name": "赤山",
				"altitude": "32.0",
				"longitude": "120.614306",
				"latitude": "22.592333",
				"city": "屏東縣",
				"town": "萬巒鄉",
				"address": "萬巒鄉建興路40號（赤山國小）"
			},
			{
				"name": "潮州",
				"altitude": "23.0",
				"longitude": "120.540000",
				"latitude": "22.534361",
				"city": "屏東縣",
				"town": "潮州鎮",
				"address": "潮州鎮光春路290號(屏東縣立光春國民中學內)"
			},
			{
				"name": "來義",
				"altitude": "87.0",
				"longitude": "120.625111",
				"latitude": "22.527306",
				"city": "屏東縣",
				"town": "萬巒鄉",
				"address": "萬巒鄉新隆路64號萬巒農場（佳佐段180號）"
			},
			{
				"name": "春日",
				"altitude": "76.0",
				"longitude": "120.628306",
				"latitude": "22.370361",
				"city": "屏東縣",
				"town": "春日鄉",
				"address": "春日鄉鄉公所資源回收場旁"
			},
			{
				"name": "琉球嶼",
				"altitude": "51.0",
				"longitude": "120.362236",
				"latitude": "22.332244",
				"city": "屏東縣",
				"town": "琉球鄉",
				"address": "琉球鄉天台段596及597地號"
			},
			{
				"name": "檳榔",
				"altitude": "242.0",
				"longitude": "120.836777",
				"latitude": "22.076078",
				"city": "屏東縣",
				"town": "滿州鄉",
				"address": "滿州鄉長樂村大公路14號(往南仁山方向)"
			},
			{
				"name": "車城",
				"altitude": "7.0",
				"longitude": "120.716073",
				"latitude": "22.074033",
				"city": "屏東縣",
				"town": "車城鄉",
				"address": "車城鄉福興村中山路66號(車城國小)"
			},
			{
				"name": "牡丹",
				"altitude": "230.0",
				"longitude": "120.792639",
				"latitude": "22.130036",
				"city": "屏東縣",
				"town": "199縣道23K-23.5K ",
				"address": "199縣道23K-23.5K間車城往旭海方向之右側"
			},
			{
				"name": "貓鼻頭",
				"altitude": "35.0",
				"longitude": "120.735800",
				"latitude": "21.921774",
				"city": "屏東縣",
				"town": "恆春鎮",
				"address": "恆春鎮(貓鼻頭風景區內)"
			},
			{
				"name": "大漢山",
				"altitude": "1654.0",
				"longitude": "120.753181",
				"latitude": "22.405264",
				"city": "屏東縣",
				"town": "春日鄉",
				"address": "春日鄉大漢山頂"
			},
			{
				"name": "高樹",
				"altitude": "103.0",
				"longitude": "120.600806",
				"latitude": "22.826389",
				"city": "屏東縣",
				"town": "高樹鄉",
				"address": "高樹鄉興中路330號(高樹圖書館)"
			},
			{
				"name": "長治",
				"altitude": "57.0",
				"longitude": "120.542622",
				"latitude": "22.693128",
				"city": "屏東縣",
				"town": "長治鄉",
				"address": "長治鄉德成村中興路572-1號(長治消防分隊)"
			},
			{
				"name": "九如",
				"altitude": "49.0",
				"longitude": "120.490503",
				"latitude": "22.740500",
				"city": "屏東縣",
				"town": "九如鄉",
				"address": "九如鄉九如路二段416號(九如鄉公所)"
			},
			{
				"name": "萬丹",
				"altitude": "31.0",
				"longitude": "120.490394",
				"latitude": "22.587775",
				"city": "屏東縣",
				"town": "萬丹鄉",
				"address": "萬丹鄉萬安村和平東路69號(萬丹消防分隊)"
			},
			{
				"name": "崁頂",
				"altitude": "18.0",
				"longitude": "120.506914",
				"latitude": "22.514781",
				"city": "屏東縣",
				"town": "崁頂鄉",
				"address": "崁頂鄉崁頂村興農路20之10號(崁頂消防分隊)"
			},
			{
				"name": "林邊",
				"altitude": "16.0",
				"longitude": "120.509983",
				"latitude": "22.430836",
				"city": "屏東縣",
				"town": "林邊鄉",
				"address": "林邊鄉光林村和平路45號(林邊鄉衛生所)"
			},
			{
				"name": "佳冬",
				"altitude": "17.0",
				"longitude": "120.552375",
				"latitude": "22.419456",
				"city": "屏東縣",
				"town": "佳冬鄉",
				"address": "佳冬鄉佳昌路2號(佳冬鄉公所)"
			},
			{
				"name": "新埤",
				"altitude": "38.0",
				"longitude": "120.582894",
				"latitude": "22.467947",
				"city": "屏東縣",
				"town": "新埤鄉",
				"address": "新埤鄉民眾路103號(新埤消防分隊)"
			},
			{
				"name": "新園",
				"altitude": "22.0",
				"longitude": "120.461558",
				"latitude": "22.543400",
				"city": "屏東縣",
				"town": "新園鄉",
				"address": "新園鄉仙吉村店口路116號(新園消防分隊)"
			},
			{
				"name": "麟洛",
				"altitude": "37.0",
				"longitude": "120.527190",
				"latitude": "22.650780",
				"city": "屏東縣",
				"town": "麟洛鄉",
				"address": "麟洛鄉中山路158號(麟洛鄉公所)"
			},
			{
				"name": "南州",
				"altitude": "10.0",
				"longitude": "120.502740",
				"latitude": "22.485910",
				"city": "屏東縣",
				"town": "南州鄉",
				"address": "南州鄉溪南村人和路241號(南州消防分隊)"
			},
			{
				"name": "里港",
				"altitude": "72.0",
				"longitude": "120.494590",
				"latitude": "22.779190",
				"city": "屏東縣",
				"town": "里港鄉",
				"address": "里港鄉永春村中山路104號(里港鄉公所)"
			},
			{
				"name": "舊泰武",
				"altitude": "766.0",
				"longitude": "120.664944",
				"latitude": "22.588194",
				"city": "屏東縣",
				"town": "泰武鄉",
				"address": "泰武鄉泰武村良武巷101號(舊泰武村老人活動中心)"
			},
			{
				"name": "墾雷",
				"altitude": "34.0",
				"longitude": "120.855269",
				"latitude": "21.900836",
				"city": "屏東縣",
				"town": "恆春鎮",
				"address": "恆春鎮燈塔路51巷33號(氣象局墾丁雷達站區內)"
			},
			{
				"name": "東港",
				"altitude": "21.0",
				"longitude": "120.440740",
				"latitude": "22.462470",
				"city": "屏東縣",
				"town": "東港鎮",
				"address": "東港鎮豐漁里豐漁街67號（水產試驗所東港生技研究中心）"
			},
			{
				"name": "竹田",
				"altitude": "29.0",
				"longitude": "120.543440",
				"latitude": "22.584860",
				"city": "屏東縣",
				"town": "竹田鄉",
				"address": "竹田鄉中正路123號(竹田鄉公所清潔隊)"
			},
			{
				"name": "枋寮",
				"altitude": "20.0",
				"longitude": "120.590647",
				"latitude": "22.367722",
				"city": "屏東縣",
				"town": "枋寮鄉",
				"address": "枋寮鄉枋寮村德興路197號(枋寮國小)"
			},
			{
				"name": "楓港",
				"altitude": "26.0",
				"longitude": "120.692156",
				"latitude": "22.190131",
				"city": "屏東縣",
				"town": "枋山鄉",
				"address": "枋山鄉善餘村光復路24號(楓港國小)"
			},
			{
				"name": "佳樂水",
				"altitude": "13.0",
				"longitude": "120.861633",
				"latitude": "21.993578",
				"city": "屏東縣",
				"town": "滿州鄉",
				"address": "滿州鄉佳樂水風景區內"
			},
			{
				"name": "墾丁",
				"altitude": "348.0",
				"longitude": "120.810269",
				"latitude": "21.966756",
				"city": "屏東縣",
				"town": "恆春鎮",
				"address": "恆春鎮墾丁森林遊樂區林業試驗所觀測坪"
			},
			{
				"name": "枋山",
				"altitude": "19.0",
				"longitude": "120.661086",
				"latitude": "22.246844",
				"city": "屏東縣",
				"town": "枋山鄉",
				"address": "枋山鄉中山路三段52號(加祿國小)"
			},
			{
				"name": "龍磐",
				"altitude": "117.0",
				"longitude": "120.838942",
				"latitude": "21.931672",
				"city": "屏東縣",
				"town": "屏東縣",
				"address": "屏東縣恆春助航台(NDB歸航台)"
			},
			{
				"name": "旭海",
				"altitude": "214.0",
				"longitude": "120.887614",
				"latitude": "22.205403",
				"city": "屏東縣",
				"town": "牡丹鄉",
				"address": "牡丹鄉旭海大草原步道旁"
			},
			{
				"name": "大坪頂",
				"altitude": "163.0",
				"longitude": "120.693550",
				"latitude": "22.024633",
				"city": "屏東縣",
				"town": "恆春鎮",
				"address": "屏東縣恆春鎮大坪頂電信機房旁"
			},
			{
				"name": "獅子",
				"altitude": "58.0",
				"longitude": "120.705250",
				"latitude": "22.201569",
				"city": "屏東縣",
				"town": "獅子鄉",
				"address": "屏東縣獅子鄉楓林村2巷26號"
			},
			{
				"name": "四林格山",
				"altitude": "551.0",
				"longitude": "120.802439",
				"latitude": "22.076989",
				"city": "屏東縣",
				"town": "牡丹鄉",
				"address": "屏東縣牡丹鄉四林格山遊樂區第2涼亭旁大草原"
			},
			{
				"name": "南仁湖",
				"altitude": "336.0",
				"longitude": "120.863353",
				"latitude": "22.084681",
				"city": "屏東縣",
				"town": "滿州鄉",
				"address": "屏東縣滿州鄉南仁湖步道4K山頂觀測站旁"
			},
			{
				"name": "保力",
				"altitude": "93.0",
				"longitude": "120.764111",
				"latitude": "22.071122",
				"city": "屏東縣",
				"town": "車城鄉",
				"address": "屏東縣車城鄉保力村竹社路5號"
			},
			{
				"name": "滿州",
				"altitude": "72.0",
				"longitude": "120.839892",
				"latitude": "22.024403",
				"city": "屏東縣",
				"town": "滿州鄉",
				"address": "屏東縣滿州鄉文化路32號"
			},
			{
				"name": "九棚",
				"altitude": "111.0",
				"longitude": "120.889281",
				"latitude": "22.141950",
				"city": "屏東縣",
				"town": "牡丹鄉",
				"address": "屏東縣牡丹鄉九棚中科院基地"
			},
			{
				"name": "丹路",
				"altitude": "131.0",
				"longitude": "120.750989",
				"latitude": "22.204481",
				"city": "屏東縣",
				"town": "獅子鄉",
				"address": "屏東縣獅子鄉丹路一巷39號"
			},
			{
				"name": "內獅",
				"altitude": "25.0",
				"longitude": "120.642986",
				"latitude": "22.305064",
				"city": "屏東縣",
				"town": "獅子鄉",
				"address": "屏東縣獅子鄉內獅路1號"
			},
			{
				"name": "白鷺",
				"altitude": "588.0",
				"longitude": "120.666219",
				"latitude": "22.454275",
				"city": "屏東縣",
				"town": "來義鄉",
				"address": "屏東縣來義鄉白鷺大橋沿白鷺道路5.5公里處"
			},
			{
				"name": "高士",
				"altitude": "383.0",
				"longitude": "120.836781",
				"latitude": "22.121825",
				"city": "屏東縣",
				"town": "牡丹鄉",
				"address": "屏東縣牡丹鄉高士社區進水廠水塔頂"
			},
			{
				"name": "牡丹池山",
				"altitude": "536.0",
				"longitude": "120.841225",
				"latitude": "22.168389",
				"city": "屏東縣",
				"town": "牡丹鄉",
				"address": "屏東縣牡丹鄉牡丹池山山頂"
			},
			{
				"name": "口社",
				"altitude": "110.0",
				"longitude": "120.645222",
				"latitude": "22.770111",
				"city": "屏東縣",
				"town": "三地門鄉",
				"address": "三地門鄉口社村5鄰信義巷58-5號"
			},
			{
				"name": "上德文",
				"altitude": "820.0",
				"longitude": "120.704442",
				"latitude": "22.763272",
				"city": "屏東縣",
				"town": "三地門鄉",
				"address": "三地門鄉德文村口之公墓旁"
			},
			{
				"name": "力里",
				"altitude": "92.0",
				"longitude": "120.629228",
				"latitude": "22.428117",
				"city": "屏東縣",
				"town": "春日鄉",
				"address": "春日鄉七佳村自強一路92號(力里國民小學內)"
			},
			{
				"name": "石門山",
				"altitude": "260.0",
				"longitude": "120.756597",
				"latitude": "22.112611",
				"city": "屏東縣",
				"town": "牡丹鄉",
				"address": "牡丹鄉石門古戰場(恆春事業區29林班地)"
			},
			{
				"name": "西大武山",
				"altitude": "1828.0",
				"longitude": "120.732200",
				"latitude": "22.617719",
				"city": "屏東縣",
				"town": "泰武鄉",
				"address": "泰武鄉北大武山步道2.6k"
			},
			{
				"name": "龍泉",
				"altitude": "60.0",
				"longitude": "120.590910",
				"latitude": "22.667010",
				"city": "屏東縣",
				"town": "內埔鄉",
				"address": "內埔鄉大新路109號（屏東縣新生國民小學）"
			}
		]
	},
	{
		"city": "臺東縣",
		"obversation": [
			{
				"name": "大武",
				"altitude": "8.1",
				"longitude": "120.903789",
				"latitude": "22.355675",
				"city": "臺東縣",
				"town": "大武鄉",
				"address": "大武鄉大武街115號"
			},
			{
				"name": "成功",
				"altitude": "33.5",
				"longitude": "121.373428",
				"latitude": "23.097486",
				"city": "臺東縣",
				"town": "成功鎮",
				"address": "成功鎮公民路84號"
			},
			{
				"name": "蘭嶼",
				"altitude": "324.0",
				"longitude": "121.558339",
				"latitude": "22.036969",
				"city": "臺東縣",
				"town": "蘭嶼鄉",
				"address": "蘭嶼鄉紅頭村2號"
			},
			{
				"name": "臺東",
				"altitude": "9.0",
				"longitude": "121.154586",
				"latitude": "22.752211",
				"city": "臺東縣",
				"town": "臺東市",
				"address": "臺東市大同路106號"
			},
			{
				"name": "下馬",
				"altitude": "794.0",
				"longitude": "121.070312",
				"latitude": "23.150427",
				"city": "臺東縣",
				"town": "海端鄉",
				"address": "海端鄉廢棄下馬派出所旁"
			},
			{
				"name": "太麻里",
				"altitude": "522.0",
				"longitude": "120.985330",
				"latitude": "22.609020",
				"city": "臺東縣",
				"town": "太麻里",
				"address": "太麻里鄉(往金針山茶區之半路上)"
			},
			{
				"name": "知本",
				"altitude": "507.0",
				"longitude": "121.005642",
				"latitude": "22.684866",
				"city": "臺東縣",
				"town": "卑南鄉",
				"address": "卑南鄉溫泉村(溫泉國小之樂山分校內)"
			},
			{
				"name": "鹿野",
				"altitude": "382.0",
				"longitude": "121.122994",
				"latitude": "22.917711",
				"city": "臺東縣",
				"town": "鹿野鄉",
				"address": "鹿野鄉鹿野高台高眺亭公廁東側草地上"
			},
			{
				"name": "綠島",
				"altitude": "110.0",
				"longitude": "121.475330",
				"latitude": "22.667200",
				"city": "臺東縣",
				"town": "綠島鄉",
				"address": "綠島鄉"
			},
			{
				"name": "池上",
				"altitude": "289.0",
				"longitude": "121.209469",
				"latitude": "23.119628",
				"city": "臺東縣",
				"town": "池上鄉",
				"address": "池上鄉新興村104號(退輔會臺東農場內)"
			},
			{
				"name": "向陽",
				"altitude": "2280.0",
				"longitude": "120.986133",
				"latitude": "23.248397",
				"city": "臺東縣",
				"town": "海端鄉",
				"address": "海端鄉向陽(公路局向陽工務段圍牆內)"
			},
			{
				"name": "紅石",
				"altitude": "1621.0",
				"longitude": "121.126219",
				"latitude": "23.069131",
				"city": "臺東縣",
				"town": "海端鄉",
				"address": "海端鄉紅石(紅石瞭望臺旁)"
			},
			{
				"name": "大溪山",
				"altitude": "375.0",
				"longitude": "120.943325",
				"latitude": "22.478475",
				"city": "臺東縣",
				"town": "太麻里",
				"address": "太麻里鄉多良村(廢棄中華電信轉播站旁)"
			},
			{
				"name": "金崙",
				"altitude": "236.0",
				"longitude": "120.966875",
				"latitude": "22.538122",
				"city": "臺東縣",
				"town": "太麻里",
				"address": "太麻里鄉金崙段0304-1地號"
			},
			{
				"name": "東河",
				"altitude": "65.0",
				"longitude": "121.303986",
				"latitude": "22.972672",
				"city": "臺東縣",
				"town": "東河鄉",
				"address": "東河鄉北東河17鄰26號(東河國民小學操場旁)"
			},
			{
				"name": "長濱",
				"altitude": "288.0",
				"longitude": "121.411975",
				"latitude": "23.286817",
				"city": "臺東縣",
				"town": "長濱鄉",
				"address": "長濱鄉竹湖村移民橋後方山頂三角點旁"
			},
			{
				"name": "南田",
				"altitude": "22.0",
				"longitude": "120.889208",
				"latitude": "22.279725",
				"city": "臺東縣",
				"town": "達仁鄉",
				"address": "達仁鄉南田村南田風景區公園對面"
			},
			{
				"name": "關山",
				"altitude": "238.0",
				"longitude": "121.175017",
				"latitude": "23.039500",
				"city": "臺東縣",
				"town": "關山鎮",
				"address": "關山鎮親水公園內"
			},
			{
				"name": "蘭嶼高中",
				"altitude": "27.0",
				"longitude": "121.512140",
				"latitude": "22.049090",
				"city": "臺東縣",
				"town": "蘭嶼鄉",
				"address": "蘭嶼鄉椰油村37號（蘭嶼高中內）"
			},
			{
				"name": "蘭嶼燈塔",
				"altitude": "212.0",
				"longitude": "121.495090",
				"latitude": "22.083030",
				"city": "臺東縣",
				"town": "蘭嶼鄉",
				"address": "蘭嶼鄉椰油段1-7地號（蘭嶼燈塔旁）"
			},
			{
				"name": "金峰嘉蘭",
				"altitude": "133.0",
				"longitude": "120.960903",
				"latitude": "22.598758",
				"city": "臺東縣",
				"town": "金峰鄉",
				"address": "金峰鄉嘉蘭村12鄰665號(金峰鄉嘉蘭村活動中心)"
			},
			{
				"name": "延平",
				"altitude": "248.0",
				"longitude": "121.084058",
				"latitude": "22.902581",
				"city": "臺東縣",
				"town": "臺東縣",
				"address": "臺東縣延平鄉昇平路75號(延平消防分隊)"
			},
			{
				"name": "石寧山",
				"altitude": "150.0",
				"longitude": "121.406639",
				"latitude": "23.223772",
				"city": "臺東縣",
				"town": "長濱鄉",
				"address": "長濱鄉寧埔村石寧山附近山區"
			},
			{
				"name": "七塊厝",
				"altitude": "415.0",
				"longitude": "121.229922",
				"latitude": "22.954453",
				"city": "臺東縣",
				"town": "東河鄉",
				"address": "東河鄉尚德村七塊厝產業道路附近山區"
			},
			{
				"name": "香蘭",
				"altitude": "32.0",
				"longitude": "120.993375",
				"latitude": "22.587569",
				"city": "臺東縣",
				"town": "太麻里",
				"address": "太麻里鄉香蘭村四鄰28號 (香蘭國小)"
			},
			{
				"name": "加津林",
				"altitude": "19.0",
				"longitude": "120.926942",
				"latitude": "22.416211",
				"city": "臺東縣",
				"town": "大武鄉",
				"address": "大武鄉大竹村14鄰加津林4號(舊高溪派出所)"
			},
			{
				"name": "勝林山",
				"altitude": "903.0",
				"longitude": "120.893800",
				"latitude": "22.430439",
				"city": "臺東縣",
				"town": "達仁鄉",
				"address": "達仁鄉勝林山山頂停機坪旁(與大武鄉交界附近)"
			},
			{
				"name": "山豬窟",
				"altitude": "409.0",
				"longitude": "120.857372",
				"latitude": "22.318619",
				"city": "臺東縣",
				"town": "大武鄉",
				"address": "大武鄉南興村山豬窟產業道路附近山區(梅園涼亭旁)"
			},
			{
				"name": "歷坵",
				"altitude": "466.0",
				"longitude": "120.891850",
				"latitude": "22.520969",
				"city": "臺東縣",
				"town": "金峰鄉",
				"address": "金峰鄉歷坵產業道路附近山區"
			},
			{
				"name": "檳榔四格山",
				"altitude": "411.0",
				"longitude": "121.109308",
				"latitude": "22.810031",
				"city": "臺東縣",
				"town": "卑南鄉",
				"address": "卑南鄉檳榔四格山山頂瞭望臺旁"
			},
			{
				"name": "金崙山",
				"altitude": "857.0",
				"longitude": "120.959667",
				"latitude": "22.567419",
				"city": "臺東縣",
				"town": "太麻里",
				"address": "太麻里鄉富山產業道路附近山區(與金峰鄉交界附近)"
			},
			{
				"name": "都歷",
				"altitude": "93.0",
				"longitude": "121.323642",
				"latitude": "23.020333",
				"city": "臺東縣",
				"town": "成功鎮",
				"address": "成功鎮新村路25號(東部海岸國家風景區管理處)"
			},
			{
				"name": "瑞和",
				"altitude": "200.0",
				"longitude": "121.156697",
				"latitude": "22.974361",
				"city": "臺東縣",
				"town": "鹿野鄉",
				"address": "鹿野鄉瑞和村瑞景路3段1號(瑞源國中)"
			},
			{
				"name": "知本（水試所）",
				"altitude": "11.0",
				"longitude": "121.082761",
				"latitude": "22.702394",
				"city": "臺東縣",
				"town": "臺東縣",
				"address": "臺東縣臺東市知本路2段291巷299號"
			},
			{
				"name": "土坂",
				"altitude": "136.0",
				"longitude": "120.887488",
				"latitude": "22.452922",
				"city": "臺東縣",
				"town": "達仁鄉",
				"address": "達仁鄉土坂村1鄰10號(土坂國民小學操場旁)"
			},
			{
				"name": "達仁林場",
				"altitude": "497.0",
				"longitude": "120.823972",
				"latitude": "22.264347",
				"city": "臺東縣",
				"town": "臺東縣",
				"address": "臺東縣達仁鄉臺東達五號農路4K處"
			},
			{
				"name": "摩天",
				"altitude": "1580.0",
				"longitude": "121.027000",
				"latitude": "23.199503",
				"city": "臺東縣",
				"town": "海端鄉",
				"address": "海端鄉(省道臺20線169K福德宮後方)"
			},
			{
				"name": "華源",
				"altitude": "80.0",
				"longitude": "121.023250",
				"latitude": "22.657883",
				"city": "臺東縣",
				"town": "太麻里",
				"address": "太麻里鄉華源村"
			},
			{
				"name": "金峰",
				"altitude": "177.0",
				"longitude": "120.933236",
				"latitude": "22.590969",
				"city": "臺東縣",
				"town": "金峰鄉",
				"address": "金峰鄉嘉蘭村嘉蘭國小旁"
			},
			{
				"name": "利嘉",
				"altitude": "516.0",
				"longitude": "121.050528",
				"latitude": "22.809417",
				"city": "臺東縣",
				"town": "卑南鄉",
				"address": "卑南鄉利嘉林道6k附近梅子園"
			},
			{
				"name": "南美山",
				"altitude": "222.0",
				"longitude": "121.382333",
				"latitude": "23.150250",
				"city": "臺東縣",
				"town": "成功鎮",
				"address": "成功鎮南美山產業道路盡頭柑橘園"
			},
			{
				"name": "壽卡",
				"altitude": "474.0",
				"longitude": "120.858903",
				"latitude": "22.238911",
				"city": "臺東縣",
				"town": "達仁鄉",
				"address": "達仁鄉(大武事業區第48林班內)電信轉播站後方"
			},
			{
				"name": "利嘉林道",
				"altitude": "1235.0",
				"longitude": "121.009389",
				"latitude": "22.823250",
				"city": "臺東縣",
				"town": "臺東縣",
				"address": "臺東縣卑南鄉利嘉林道17K處"
			},
			{
				"name": "都蘭",
				"altitude": "62.0",
				"longitude": "121.226881",
				"latitude": "22.877940",
				"city": "臺東縣",
				"town": "東河鄉",
				"address": "東河鄉都蘭村431號(都蘭國民小學教室頂樓)"
			}
		]
	},
	{
		"city": "花蓮縣",
		"obversation": [
			{
				"name": "花蓮",
				"altitude": "16.1",
				"longitude": "121.613275",
				"latitude": "23.975128",
				"city": "花蓮縣",
				"town": "花蓮市",
				"address": "花蓮市花崗街24號"
			},
			{
				"name": "大禹嶺",
				"altitude": "2830.0",
				"longitude": "121.316086",
				"latitude": "24.186117",
				"city": "花蓮縣",
				"town": "秀林鄉",
				"address": "秀林鄉立霧溪事業區67林班地(救國團大禹山莊)"
			},
			{
				"name": "天祥",
				"altitude": "550.0",
				"longitude": "121.495639",
				"latitude": "24.179597",
				"city": "花蓮縣",
				"town": "秀林鄉",
				"address": "秀林鄉立霧溪事業區80林班地(天祥祥德寺)"
			},
			{
				"name": "鯉魚潭",
				"altitude": "135.0",
				"longitude": "121.508944",
				"latitude": "23.935639",
				"city": "花蓮縣",
				"town": "壽豐鄉",
				"address": "壽豐鄉池南村池南路一段8號(鯉魚潭風景區旁)"
			},
			{
				"name": "西林",
				"altitude": "160.0",
				"longitude": "121.441458",
				"latitude": "23.811900",
				"city": "花蓮縣",
				"town": "萬榮鄉",
				"address": "萬榮鄉西林路8鄰114號(西林國民小學運動場旁)"
			},
			{
				"name": "光復",
				"altitude": "120.0",
				"longitude": "121.424964",
				"latitude": "23.660694",
				"city": "花蓮縣",
				"town": "光復鄉",
				"address": "光復鄉大進村糖廠街19號(台糖公司花蓮光復糖廠內)"
			},
			{
				"name": "月眉山",
				"altitude": "498.0",
				"longitude": "121.539828",
				"latitude": "23.809928",
				"city": "花蓮縣",
				"town": "壽豐鄉",
				"address": "壽豐鄉月眉山旁的小山丘上(過米棧大橋往山上水璉方向至四號橋左轉之山"
			},
			{
				"name": "水源",
				"altitude": "558.0",
				"longitude": "121.537169",
				"latitude": "23.991861",
				"city": "花蓮縣",
				"town": "秀林鄉",
				"address": "秀林鄉原林務局水源段的苗圃內"
			},
			{
				"name": "和中",
				"altitude": "8.0",
				"longitude": "121.741030",
				"latitude": "24.266760",
				"city": "花蓮縣",
				"town": "秀林鄉",
				"address": "秀林鄉秀林村62號(和平國小和中分校校園內)"
			},
			{
				"name": "大坑",
				"altitude": "415.0",
				"longitude": "121.581981",
				"latitude": "23.880628",
				"city": "花蓮縣",
				"town": "壽豐鄉",
				"address": "壽豐鄉10鄰山嶺80之1號(中華電信公司賀田山機房)旁"
			},
			{
				"name": "水璉",
				"altitude": "251.0",
				"longitude": "121.542514",
				"latitude": "23.797131",
				"city": "花蓮縣",
				"town": "壽豐鄉",
				"address": "壽豐鄉水璉村"
			},
			{
				"name": "鳳林山",
				"altitude": "605.0",
				"longitude": "121.420131",
				"latitude": "23.735269",
				"city": "花蓮縣",
				"town": "鳳林鎮",
				"address": "鳳林鎮"
			},
			{
				"name": "加路蘭山",
				"altitude": "725.0",
				"longitude": "121.527400",
				"latitude": "23.682947",
				"city": "花蓮縣",
				"town": "豐濱鄉",
				"address": "豐濱鄉臨海段776-4號"
			},
			{
				"name": "豐濱",
				"altitude": "152.0",
				"longitude": "121.514806",
				"latitude": "23.583897",
				"city": "花蓮縣",
				"town": "豐濱鄉",
				"address": "豐濱鄉豐濱村"
			},
			{
				"name": "靜浦",
				"altitude": "92.0",
				"longitude": "121.495028",
				"latitude": "23.455167",
				"city": "花蓮縣",
				"town": "豐濱鄉",
				"address": "豐濱鄉靜浦村活動中心後山上"
			},
			{
				"name": "富里",
				"altitude": "261.0",
				"longitude": "121.249378",
				"latitude": "23.171639",
				"city": "花蓮縣",
				"town": "富里鄉",
				"address": "富里鄉永安街52號(富里國小)"
			},
			{
				"name": "明里",
				"altitude": "211.0",
				"longitude": "121.262342",
				"latitude": "23.208717",
				"city": "花蓮縣",
				"town": "富里鄉",
				"address": "富里鄉明里村明里社區後方山上"
			},
			{
				"name": "佳心",
				"altitude": "824.0",
				"longitude": "121.213160",
				"latitude": "23.345670",
				"city": "花蓮縣",
				"town": "卓溪鄉",
				"address": "卓溪鄉佳心(玉山國家公園內，距花蓮卓溪鄉南安遊客步行2.5時之日據時代派出所舊址)"
			},
			{
				"name": "玉里",
				"altitude": "174.0",
				"longitude": "121.339656",
				"latitude": "23.321500",
				"city": "花蓮縣",
				"town": "玉里鎮",
				"address": "玉里鎮樂合里新民41號(樂合國小)"
			},
			{
				"name": "舞鶴",
				"altitude": "247.0",
				"longitude": "121.374070",
				"latitude": "23.468110",
				"city": "花蓮縣",
				"town": "瑞穗鄉",
				"address": "瑞穗鄉舞鶴村加納納山三角點旁"
			},
			{
				"name": "富源",
				"altitude": "298.0",
				"longitude": "121.378225",
				"latitude": "23.587642",
				"city": "花蓮縣",
				"town": "光復鄉",
				"address": "光復鄉大豐村9鄰265號(富源國中對面之半山腰上)"
			},
			{
				"name": "東華",
				"altitude": "36.0",
				"longitude": "121.549833",
				"latitude": "23.895250",
				"city": "花蓮縣",
				"town": "壽豐鄉",
				"address": "壽豐鄉大學路二段1號（國立東華大學）"
			},
			{
				"name": "吉安光華",
				"altitude": "27.0",
				"longitude": "121.595153",
				"latitude": "23.930925",
				"city": "花蓮縣",
				"town": "吉安鄉",
				"address": "吉安鄉南濱路一段531號(水資源回收中心)"
			},
			{
				"name": "鳳林",
				"altitude": "124.0",
				"longitude": "121.453411",
				"latitude": "23.746114",
				"city": "花蓮縣",
				"town": "鳳林鎮",
				"address": "鳳林鎮信義路200號(鳳林地政事務所)"
			},
			{
				"name": "卓溪",
				"altitude": "199.0",
				"longitude": "121.303300",
				"latitude": "23.344250",
				"city": "花蓮縣",
				"town": "卓溪鄉",
				"address": "卓溪鄉卓溪村中正路65-5號(卓溪鄉立圖書館)"
			},
			{
				"name": "新城",
				"altitude": "34.0",
				"longitude": "121.604540",
				"latitude": "24.039460",
				"city": "花蓮縣",
				"town": "新城鄉",
				"address": "新城鄉大漢村光復路570號(新城鄉公所)"
			},
			{
				"name": "富世",
				"altitude": "62.0",
				"longitude": "121.629700",
				"latitude": "24.147430",
				"city": "花蓮縣",
				"town": "秀林鄉",
				"address": "秀林鄉富世村127號(富世國小校園內)"
			},
			{
				"name": "萬榮",
				"altitude": "153.0",
				"longitude": "121.420106",
				"latitude": "23.709219",
				"city": "花蓮縣",
				"town": "鳳林鎮",
				"address": "鳳林鎮長橋里長橋路2號(長橋國小)"
			},
			{
				"name": "瑞穗",
				"altitude": "126.0",
				"longitude": "121.390210",
				"latitude": "23.523900",
				"city": "花蓮縣",
				"town": "瑞穗鄉",
				"address": "瑞穗鄉鶴岡村167號(鶴岡國小)"
			},
			{
				"name": "和平林道",
				"altitude": "589.0",
				"longitude": "121.656317",
				"latitude": "24.343922",
				"city": "花蓮縣",
				"town": "秀林鄉",
				"address": "秀林鄉臺電公司東部發電廠碧海機組廠區內(進入管制哨約7公里處)"
			},
			{
				"name": "和平",
				"altitude": "31.0",
				"longitude": "121.770070",
				"latitude": "24.307170",
				"city": "花蓮縣",
				"town": "秀林鄉",
				"address": "秀林鄉克來寶段399地號(和平工業港安檢所綠洲分隊)"
			},
			{
				"name": "瑞穗林道",
				"altitude": "1124.0",
				"longitude": "121.306880",
				"latitude": "23.492840",
				"city": "花蓮縣",
				"town": "卓溪鄉",
				"address": "卓溪鄉瑞穗林道約7.5K瑞欣礦區下方空地"
			},
			{
				"name": "蕃薯寮",
				"altitude": "343.0",
				"longitude": "121.540108",
				"latitude": "23.738350",
				"city": "花蓮縣",
				"town": "壽豐鄉",
				"address": "壽豐鄉水璉村蕃薯寮附近山區道路旁(牛山段607地號內)"
			},
			{
				"name": "德武",
				"altitude": "224.0",
				"longitude": "121.410710",
				"latitude": "23.474260",
				"city": "花蓮縣",
				"town": "玉里鎮",
				"address": "玉里鎮德武里附近山區道路旁(德武段680地號內)"
			},
			{
				"name": "赤柯山",
				"altitude": "946.0",
				"longitude": "121.382930",
				"latitude": "23.368930",
				"city": "花蓮縣",
				"town": "玉里鎮",
				"address": "玉里鎮赤柯山段338地號"
			},
			{
				"name": "東里",
				"altitude": "182.0",
				"longitude": "121.305470",
				"latitude": "23.268530",
				"city": "花蓮縣",
				"town": "富里鄉",
				"address": "富里鄉東里村大莊路52號(東里消防分隊)"
			},
			{
				"name": "清水斷崖",
				"altitude": "59.0",
				"longitude": "121.689142",
				"latitude": "24.218294",
				"city": "花蓮縣",
				"town": "秀林鄉",
				"address": "秀林鄉臺9線大清水遊憩區下方空地"
			},
			{
				"name": "清水林道",
				"altitude": "646.0",
				"longitude": "121.188272",
				"latitude": "23.271250",
				"city": "花蓮縣",
				"town": "卓溪鄉",
				"address": "卓溪鄉清水林道北側山區(新生段1地號)"
			},
			{
				"name": "安通山",
				"altitude": "488.0",
				"longitude": "121.348528",
				"latitude": "23.290728",
				"city": "花蓮縣",
				"town": "玉里鎮",
				"address": "玉里鎮安通產業道路附近山區"
			},
			{
				"name": "豐南",
				"altitude": "489.0",
				"longitude": "121.262389",
				"latitude": "23.122139",
				"city": "花蓮縣",
				"town": "富里鄉",
				"address": "富里鄉豐南村花82縣道盡頭叉路1k旁"
			},
			{
				"name": "洛韶",
				"altitude": "1260.0",
				"longitude": "121.453956",
				"latitude": "24.204558",
				"city": "花蓮縣",
				"town": "秀林鄉",
				"address": "秀林鄉富世村中橫公路洛韶11號旁"
			},
			{
				"name": "慈恩",
				"altitude": "2049.0",
				"longitude": "121.388386",
				"latitude": "24.192044",
				"city": "花蓮縣",
				"town": "秀林鄉",
				"address": "秀林鄉富世村關原路3號(救國團慈恩山莊)"
			},
			{
				"name": "布洛灣",
				"altitude": "675.0",
				"longitude": "121.571270",
				"latitude": "24.171840",
				"city": "花蓮縣",
				"town": "秀林鄉",
				"address": "秀林鄉布洛灣地區(布洛灣遊客中心圓環之廣場旁邊)"
			},
			{
				"name": "中興",
				"altitude": "68.0",
				"longitude": "121.498653",
				"latitude": "23.769503",
				"city": "花蓮縣",
				"town": "壽豐鄉",
				"address": "壽豐鄉中興大橋橋頭旁"
			},
			{
				"name": "大觀",
				"altitude": "539.0",
				"longitude": "121.373133",
				"latitude": "23.714206",
				"city": "花蓮縣",
				"town": "萬榮鄉",
				"address": "萬榮鄉(往臺16線過管制哨約12k處)"
			},
			{
				"name": "太安",
				"altitude": "1050.0",
				"longitude": "121.370128",
				"latitude": "23.666719",
				"city": "花蓮縣",
				"town": "萬榮鄉",
				"address": "萬榮鄉太田事業區128林班地(馬太鞍苗圃)"
			},
			{
				"name": "大農",
				"altitude": "183.0",
				"longitude": "121.413331",
				"latitude": "23.615233",
				"city": "花蓮縣",
				"town": "光復鄉",
				"address": "光復鄉花蓮糖廠之大農農場內(大農段691號)"
			},
			{
				"name": "龍澗",
				"altitude": "1306.0",
				"longitude": "121.411328",
				"latitude": "24.023289",
				"city": "花蓮縣",
				"town": "秀林鄉",
				"address": "秀林鄉龍澗發電廠旁"
			},
			{
				"name": "高寮",
				"altitude": "128.0",
				"longitude": "121.356808",
				"latitude": "23.394239",
				"city": "花蓮縣",
				"town": "玉里鎮",
				"address": "玉里鎮觀音里15鄰9號(觀音國民小學校園內)"
			},
			{
				"name": "太魯閣",
				"altitude": "94.0",
				"longitude": "121.623600",
				"latitude": "24.157730",
				"city": "花蓮縣",
				"town": "秀林鄉",
				"address": "秀林鄉富世291號（太魯閣國家公園管理處內）"
			},
			{
				"name": "紅葉",
				"altitude": "218.0",
				"longitude": "121.338806",
				"latitude": "23.493119",
				"city": "花蓮縣",
				"town": "萬榮鄉",
				"address": "萬榮鄉紅葉村教堂附近"
			},
			{
				"name": "立山",
				"altitude": "434.0",
				"longitude": "121.327375",
				"latitude": "23.443356",
				"city": "花蓮縣",
				"town": "卓溪鄉",
				"address": "卓溪鄉立山村後山上"
			},
			{
				"name": "三棧",
				"altitude": "680.0",
				"longitude": "121.605010",
				"latitude": "24.115570",
				"city": "花蓮縣",
				"town": "秀林鄉",
				"address": "秀林鄉雙露山"
			},
			{
				"name": "壽豐",
				"altitude": "62.0",
				"longitude": "121.508081",
				"latitude": "23.870853",
				"city": "花蓮縣",
				"town": "壽豐鄉",
				"address": "壽豐鄉壽豐村壽山路37號(壽豐鄉文康中心)"
			},
			{
				"name": "銅門",
				"altitude": "187.0",
				"longitude": "121.492842",
				"latitude": "23.965694",
				"city": "花蓮縣",
				"town": "秀林鄉",
				"address": "秀林鄉銅門村69號(銅門國小)"
			},
			{
				"name": "荖溪",
				"altitude": "950.0",
				"longitude": "121.459640",
				"latitude": "23.890575",
				"city": "花蓮縣",
				"town": "秀林鄉",
				"address": "秀林鄉"
			},
			{
				"name": "中平林道",
				"altitude": "1163.0",
				"longitude": "121.267630",
				"latitude": "23.421150",
				"city": "花蓮縣",
				"town": "卓溪鄉",
				"address": "卓溪鄉中平林道(玉里林道)約15K鐵牌處步行上山高地"
			}
		]
	}
]
